     3.05           OBSERVATION DATA    M (MIXED)           RINEX VERSION / TYPE
cnvtToRINEX 3.14.0  REGINA              20230101 011530 UTC PGM / RUN BY / DATE
gfzrnx-2.00-8219    FILE PROCESSING     20230326 102750 UTC COMMENT
INITIAL_RINEX_VERSION: 3.04                                 COMMENT
TLSE                                                        MARKER NAME
10003M009                                                   MARKER NUMBER
Automatic           CNES                                    OBSERVER / AGENCY
6139R40106          TRIMBLE ALLOY       6.14                REC # / TYPE / VERS
5129354206          TRM59800.00     NONE                    ANT # / TYPE
        1.0530        0.0000        0.0000                  ANTENNA: DELTA H/E/N
  4627852.3520   119640.5351  4372994.4909                  APPROX POSITION XYZ
C   24 C1X C2I C5X C6I C7D C7I D1X D2I D5X D6I D7D D7I L1X  SYS / # / OBS TYPES
       L2I L5X L6I L7D L7I S1X S2I S5X S6I S7D S7I          SYS / # / OBS TYPES
E   20 C1X C5X C6X C7X C8X D1X D5X D6X D7X D8X L1X L5X L6X  SYS / # / OBS TYPES
       L7X L8X S1X S5X S6X S7X S8X                          SYS / # / OBS TYPES
G   20 C1C C1X C2W C2X C5X D1C D1X D2W D2X D5X L1C L1X L2W  SYS / # / OBS TYPES
       L2X L5X S1C S1X S2W S2X S5X                          SYS / # / OBS TYPES
I    4 C5A D5A L5A S5A                                      SYS / # / OBS TYPES
R   16 C1C C1P C2C C2P D1C D1P D2C D2P L1C L1P L2C L2P S1C  SYS / # / OBS TYPES
       S1P S2C S2P                                          SYS / # / OBS TYPES
S    8 C1C C5I D1C D5I L1C L5I S1C S5I                      SYS / # / OBS TYPES
----------------------------------------------------------- COMMENT
GEODETIC                                                    MARKER TYPE
     0                                                      RCV CLOCK OFFS APPL
 11 R01  1 R06 -4 R07  5 R08  6 R13 -2 R14 -7 R15  0 R21  4 GLONASS SLOT / FRQ #
    R22 -3 R23  3 R24  2                                    GLONASS SLOT / FRQ #
R L1P  0.25000                                              SYS / PHASE SHIFT
R L2C -0.25000                                              SYS / PHASE SHIFT
R L2P  0.00000                                              SYS / PHASE SHIFT
G L1X  0.25000                                              SYS / PHASE SHIFT
G L2X -0.25000                                              SYS / PHASE SHIFT
    18                                                      LEAP SECONDS
DBHZ                                                        SIGNAL STRENGTH UNIT
 C1C    0.000 C1P    0.000 C2C    0.000 C2P    0.000        GLONASS COD/PHS/BIS
C                                                           SYS / PHASE SHIFT
E                                                           SYS / PHASE SHIFT
I                                                           SYS / PHASE SHIFT
S                                                           SYS / PHASE SHIFT
GFZRNX.NUM_EPOCHS: 10                                       COMMENT
    50                                                      # OF SATELLITES
   C05          10          10          10          10      PRN / # OF OBS
           9           9          10          10          10PRN / # OF OBS
                10          10          10                  PRN / # OF OBS
   C06          10          10          10          10      PRN / # OF OBS
           9           9          10          10          10PRN / # OF OBS
                10          10          10                  PRN / # OF OBS
   C09          10          10          10          10      PRN / # OF OBS
           9           9          10          10          10PRN / # OF OBS
                10          10          10                  PRN / # OF OBS
   C14          10          10          10          10      PRN / # OF OBS
           9           9          10          10          10PRN / # OF OBS
                10          10          10                  PRN / # OF OBS
   C16          10          10          10          10      PRN / # OF OBS
           9           9          10          10          10PRN / # OF OBS
                10          10          10                  PRN / # OF OBS
   C27    10    10    10    10    10           9    10     9PRN / # OF OBS
           9     9          10    10    10    10    10      PRN / # OF OBS
          10    10    10    10    10                        PRN / # OF OBS
   C28    10    10    10    10    10           9    10     9PRN / # OF OBS
           9     9          10    10    10    10    10      PRN / # OF OBS
          10    10    10    10    10                        PRN / # OF OBS
   C30    10    10    10    10     6           9    10     9PRN / # OF OBS
           9     3          10    10    10    10     4      PRN / # OF OBS
          10    10    10    10     6                        PRN / # OF OBS
   C32    10    10    10    10    10           9    10     9PRN / # OF OBS
           9     9          10    10    10    10    10      PRN / # OF OBS
          10    10    10    10    10                        PRN / # OF OBS
   C33    10    10    10    10    10           9    10     9PRN / # OF OBS
           9     9          10    10    10    10    10      PRN / # OF OBS
          10    10    10    10    10                        PRN / # OF OBS
   C36    10    10    10    10    10           9    10     9PRN / # OF OBS
           9     9          10    10    10    10    10      PRN / # OF OBS
          10    10    10    10    10                        PRN / # OF OBS
   C39    10    10    10    10    10           9    10     9PRN / # OF OBS
           9     9          10    10    10    10    10      PRN / # OF OBS
          10    10    10    10    10                        PRN / # OF OBS
   C41    10    10    10    10    10           9    10     9PRN / # OF OBS
           9     9          10    10    10    10    10      PRN / # OF OBS
          10    10    10    10    10                        PRN / # OF OBS
   C42    10    10    10    10    10           9    10     9PRN / # OF OBS
           9     9          10    10    10    10    10      PRN / # OF OBS
          10    10    10    10    10                        PRN / # OF OBS
   C43    10    10    10    10    10           9    10     9PRN / # OF OBS
           9     9          10    10    10    10    10      PRN / # OF OBS
          10    10    10    10    10                        PRN / # OF OBS
   E02    10    10    10    10    10    10     9     9     9PRN / # OF OBS
           9    10    10    10    10    10    10    10    10PRN / # OF OBS
          10    10                                          PRN / # OF OBS
   E04    10    10    10    10    10    10     9     9     9PRN / # OF OBS
           9    10    10    10    10    10    10    10    10PRN / # OF OBS
          10    10                                          PRN / # OF OBS
   E10    10    10    10    10    10    10     9     9     9PRN / # OF OBS
           9    10    10    10    10    10    10    10    10PRN / # OF OBS
          10    10                                          PRN / # OF OBS
   E11    10    10    10    10    10    10     9     9     9PRN / # OF OBS
           9    10    10    10    10    10    10    10    10PRN / # OF OBS
          10    10                                          PRN / # OF OBS
   E12    10    10    10    10    10    10     9     9     9PRN / # OF OBS
           9    10    10    10    10    10    10    10    10PRN / # OF OBS
          10    10                                          PRN / # OF OBS
   E19    10    10    10    10    10    10     9     9     9PRN / # OF OBS
           9    10    10    10    10    10    10    10    10PRN / # OF OBS
          10    10                                          PRN / # OF OBS
   E24    10    10    10    10    10    10     9     9     9PRN / # OF OBS
           9    10    10    10    10    10    10    10    10PRN / # OF OBS
          10    10                                          PRN / # OF OBS
   E25    10    10    10    10    10    10     9     9     9PRN / # OF OBS
           9    10    10    10    10    10    10    10    10PRN / # OF OBS
          10    10                                          PRN / # OF OBS
   E33    10    10    10    10    10    10     9     9     9PRN / # OF OBS
           9    10    10    10    10    10    10    10    10PRN / # OF OBS
          10    10                                          PRN / # OF OBS
   G01    10          10    10    10    10           9     9PRN / # OF OBS
           9    10          10    10    10    10          10PRN / # OF OBS
          10    10                                          PRN / # OF OBS
   G03    10          10    10    10    10           9     9PRN / # OF OBS
           9    10          10    10    10    10          10PRN / # OF OBS
          10    10                                          PRN / # OF OBS
   G08    10          10    10    10    10           9     9PRN / # OF OBS
           9    10          10    10    10    10          10PRN / # OF OBS
          10    10                                          PRN / # OF OBS
   G10    10          10    10    10    10           9     9PRN / # OF OBS
           9    10          10    10    10    10          10PRN / # OF OBS
          10    10                                          PRN / # OF OBS
   G14    10    10    10    10    10    10     9     9     9PRN / # OF OBS
           9    10    10    10    10    10    10    10    10PRN / # OF OBS
          10    10                                          PRN / # OF OBS
   G17    10          10    10          10           9     9PRN / # OF OBS
                 5           5    10          10          10PRN / # OF OBS
          10                                                PRN / # OF OBS
   G21    10          10                10           9      PRN / # OF OBS
                10          10                10          10PRN / # OF OBS
                                                            PRN / # OF OBS
   G22    10          10                10           9      PRN / # OF OBS
                10          10                10          10PRN / # OF OBS
                                                            PRN / # OF OBS
   G27    10          10    10    10    10           9     9PRN / # OF OBS
           9    10          10    10    10    10          10PRN / # OF OBS
          10    10                                          PRN / # OF OBS
   G32    10          10    10    10    10           9     9PRN / # OF OBS
           9    10          10    10    10    10          10PRN / # OF OBS
          10    10                                          PRN / # OF OBS
   I06    10    10    10    10                              PRN / # OF OBS
   I09    10    10    10    10                              PRN / # OF OBS
   R01    10    10    10    10    10     9     9     9    10PRN / # OF OBS
          10    10    10    10    10    10    10            PRN / # OF OBS
   R06    10    10                10     9                10PRN / # OF OBS
          10                10    10                        PRN / # OF OBS
   R07    10    10    10    10    10     9     9     9    10PRN / # OF OBS
          10    10    10    10    10    10    10            PRN / # OF OBS
   R08    10    10    10    10    10     9     9     9    10PRN / # OF OBS
          10    10    10    10    10    10    10            PRN / # OF OBS
   R14    10    10    10    10    10     9     9     9    10PRN / # OF OBS
          10    10    10    10    10    10    10            PRN / # OF OBS
   R15    10    10    10    10    10     9     9     9    10PRN / # OF OBS
          10    10    10    10    10    10    10            PRN / # OF OBS
   R21    10    10    10    10    10     9     9     9    10PRN / # OF OBS
          10    10    10    10    10    10    10            PRN / # OF OBS
   R22    10    10    10    10    10     9     9     9    10PRN / # OF OBS
          10    10    10    10    10    10    10            PRN / # OF OBS
   R23    10    10                10     9                10PRN / # OF OBS
          10                10    10                        PRN / # OF OBS
   R24    10    10    10    10    10     9     9     9    10PRN / # OF OBS
          10    10    10    10    10    10    10            PRN / # OF OBS
   S23    10    10    10     9    10    10    10    10      PRN / # OF OBS
   S26    10          10          10          10            PRN / # OF OBS
   S36    10    10    10     9    10    10    10    10      PRN / # OF OBS
   S48    10          10          10          10            PRN / # OF OBS
     1.000                                                  INTERVAL
  2023     1     1     1     0    0.0000000     GPS         TIME OF FIRST OBS
  2023     1     1     1     0    9.0000000     GPS         TIME OF LAST OBS
                                                            END OF HEADER
> 2023 01 01 01 00 00.0000000  0 50
C05                  39902331.273 5                  39902320.285 6                  39902322.902 6                       -19.172 5                                                                                 207781898.727 5                 168839789.973 6                 160670126.818 6                        35.600                          37.400                          39.600
C06                  40000442.984 5                  40000429.172 6                  40000434.105 6                      1162.184 5                                                                                 208292809.564 5                 169254923.719 6                 161065182.160 6                        35.400                          36.400                          38.500
C09                  40372662.367 6                  40372648.664 6                  40372655.832 6                      1497.070 6                                                                                 210231057.309 6                 170829907.450 6                 162563966.822 6                        37.400                          36.000                          39.000
C14                  23680593.906 7                  23680580.781 7                  23680586.535 7                     -2323.977 7                                                                                 123311159.412 7                 100200394.645 7                  95352014.133 7                        46.000                          47.300                          47.800
C16                  40171937.031 6                  40171927.113 5                  40171934.406 6                       953.617 6                                                                                 209185825.472 6                 169980581.220 5                 161755737.866 6                        39.200                          35.700                          38.600
C27  22490187.461 8  22490188.617 8  22490185.074 8  22490179.188 8  22490182.578 7                                      1831.172 8                                                                 118186732.156 8 117112327.864 8  88256340.206 8  95163322.315 8  90558661.204 7                        50.300          51.500          50.900          50.900          45.200
C28  21792700.352 8  21792701.875 8  21792698.363 8  21792692.555 8  21792696.270 7                                      -873.164 8                                                                 114521439.792 8 113480350.596 8  85519277.174 8  92212057.664 8  87750196.907 7                        52.100          51.600          52.400          52.300          47.200
C30  26684811.707 5  26684812.703 5  26684810.387 5  26684805.320 5  26684809.297 4                                      3035.309 5                                                                 140229624.876 5 138954825.609 5 104716936.791 5 112912146.478 5                                        35.900          34.300          35.500          35.900          27.200
C32  26871934.660 5  26871936.227 5  26871936.434 6  26871928.594 6  26871933.680 5                                      3469.910 5                                                                 141212957.987 5 139929231.340 5 105451263.156 6 113703935.689 6 108202145.619 5                        35.200          35.400          40.200          37.700          32.300
C33  22490593.090 8  22490594.000 8  22490615.492 8  22490597.012 8  22490612.914 7                                      -887.484 8                                                                 118188984.462 8 117114560.843 8  88258144.962 8  95165237.599 8  90560521.014 7                        53.000          52.000          53.500          52.300          47.300
C36  27217628.164 6  27217629.430 6  27217631.980 6  27217625.191 6  27217629.793 5                                      -746.023 6                                                                 143029593.642 6 141729341.105 6 106807837.837 6 115166686.246 6 109594118.470 5                        36.100          37.600          40.800          40.600          33.500
C39  40042496.934 6  40042497.250 6  40042491.578 7  40042485.180 6  40042489.313 5                                       606.137 6                                                                 210424735.343 6 208511791.755 6 157135355.300 7 169432868.050 6 161234518.336 5                        40.900          39.200          42.400          39.900          35.300
C41  22729843.254 8  22729843.789 8  22729850.797 8  22729840.563 8  22729848.344 7                                      2198.184 8                                                                 119446183.317 8 118360318.998 8  89196873.549 8  96177460.900 8  91523734.348 7                        51.800          50.900          53.000          51.000          46.000
C42  26192829.645 6  26192830.750 6  26192837.777 6  26192830.074 6  26192835.648 5                                     -3073.488 6                                                                 137644297.846 6 136393004.122 6 102786377.104 6 110830502.821 6 105467734.747 5                        39.200          38.000          41.800          40.400          35.300
C43  25629246.258 6  25629247.391 6  25629245.594 7  25629238.301 6  25629243.129 5                                     -2912.074 6                                                                 134682793.446 6 133458427.762 6 100574917.565 7 108445947.353 6 103198479.797 5                        41.300          40.700          42.000          40.100          35.700
E02  27711360.805 6  27711361.945 6  27711354.758 7  27711359.484 6  27711362.117 7      1155.410 6                                                                 145624186.831 6 108745334.186 6 118201426.255 7 111582160.518 6 110163756.644 7        39.000          39.500          43.600          40.400          44.000
E04  26044754.617 7  26044755.527 7  26044747.801 7  26044753.434 7  26044755.664 8      2888.035 7                                                                 136866194.515 7 102205324.198 7 111092698.913 7 104871528.632 7 103538439.714 8        45.500          47.400          47.600          46.700          50.800
E10  23637638.289 8  23637639.980 8  23637632.863 9  23637637.457 8  23637639.758 9       387.063 8                                                                 124216682.954 8  92759253.713 8 100825234.021 9  95179046.709 8  93969156.005 9        52.700          53.200          57.300          53.100          56.800
E11  24419097.281 7  24419095.793 7  24419087.828 8  24419093.621 7  24419095.727 8      1470.625 7                                                                 128323237.110 7  95825789.183 7 104158433.602 8  98325574.467 7  97075708.621 8        46.300          45.500          50.800          45.600          48.500
E12  23870557.352 8  23870556.352 8  23870547.805 8  23870554.012 8  23870556.230 8      -728.215 8                                                                 125440651.593 8  93673226.265 8 101818683.024 8  96116865.108 8  94895051.485 8        48.500          50.200          53.600          50.300          53.800
E19  25962575.703 7  25962576.883 7  25962568.730 7  25962574.273 7  25962576.609 8       473.215 7                                                                 136434268.344 7 101882738.749 7 110742076.017 7 104540540.437 7 103211644.887 8        45.700          45.300          47.400          45.400          49.100
E24  27356689.445 7  27356691.578 7  27356684.023 7  27356688.520 7  27356691.008 7     -2874.504 7                                                                 143760377.752 7 107353529.714 7 116688587.173 7 110154043.030 7 108753795.158 7        42.300          43.800          45.800          43.300          47.800
E25  26305927.469 7  26305930.488 7  26305920.629 8  26305927.719 7  26305930.258 8     -1133.684 7                                                                 138238575.834 7 103230111.632 7 112206604.267 8 105923061.703 7 104576592.464 8        43.800          45.500          48.600          45.100          49.900
E33  27424979.617 6  27424981.453 7  27424973.969 7  27424978.039 6  27424980.934 7     -2152.965 6                                                                 144119488.846 6 107621848.572 7 116980183.150 7 110429344.788 6 109025602.476 7        41.800          43.000          44.500          40.800          46.200
G01  20520514.852 8                  20520522.281 7  20520522.211 8  20520518.117 9      1305.738 8                                                                 107836021.757 8                  84028127.027 7  84028130.024 8  80526943.833 9        50.300                          44.400          50.900          54.800
G03  22153792.391 7                  22153799.180 6  22153799.566 7  22153797.512 8      2893.961 7                                                                 116418850.236 7                  90716129.570 6  90716137.571 7  86936289.223 8        45.600                          36.800          47.200          51.000
G08  21423687.789 8                  21423694.742 8  21423695.367 8  21423691.430 9     -2415.965 8                                                                 112582183.708 8                  87726475.693 8  87726475.698 8  84071191.636 9        50.300                          53.200          50.200          54.100
G10  24660496.438 6                  24660503.441 5  24660503.262 6  24660499.125 7     -3303.219 6                                                                 129592005.133 6                 100980961.911 5 100980907.909 6  96773394.378 7        39.700                          34.200          39.200          43.400
G14  23210339.656 6  23210337.613 7  23210343.789 4  23210343.941 7  23210345.488 8       209.145 6                                                                 121971159.630 6 121971168.654 7  95042479.447 4  95042485.454 7  91082380.155 8        40.600          44.400          29.600          43.900          48.000
G17  24664643.984 5                  24664648.305 3  24664648.566 6                      3264.570 5                                                                 129613504.762 5                 100997610.563 3 100997615.581 6                        35.500                          21.300          38.400
G21  20849350.555 8                  20849353.770 7                                      -244.191 8                                                                 109564096.547 8                  85374649.076 7                                        49.600                          43.700
G22  22395421.156 7                  22395426.266 5                                      1259.836 7                                                                 117688888.941 7                  91705557.402 5                                        46.000                          33.500
G27  23901028.969 6                  23901035.676 6  23901036.078 6  23901033.191 7     -3597.188 6                                                                 125600755.231 6                  97870782.704 6  97870781.705 6  93792824.252 7        40.200                          37.100          40.600          45.100
G32  22886634.016 7                  22886640.199 7  22886640.574 7  22886636.758 7      -651.168 7                                                                 120270075.542 7                  93716997.902 7  93717000.904 7  89812085.171 7        45.400                          45.500          45.800          47.800
I06  38482356.281 6        65.172 6 151013108.787 6        38.300
I09  37685543.492 6         9.152 6 147886229.934 6        39.500
R01  23550466.016 6  23550465.730 6  23550469.957 5  23550471.129 5      4547.586 6                                                 125890775.002 6 125890756.008 6  97915041.541 5  97915064.508 5        40.200          38.200          34.400          33.300
R06  23607641.578 5  23607639.242 5                                     -4119.941 5                                                 125974933.979 5 125974903.029 5                                        32.400          31.100
R07  20045508.289 9  20045507.426 8  20045510.766 8  20045510.848 8     -1479.008 9                                                 107305238.381 9 107305268.385 8  83459709.460 8  83459651.464 8        54.200          51.800          50.100          49.900
R08  20023909.039 8  20023908.457 8  20023911.012 8  20023910.602 8      2510.426 8                                                 107227195.522 8 107227210.538 8  83398972.573 8  83398997.581 8        51.700          50.000          50.400          49.500
R14  23167180.734 6  23167177.730 6  23167183.047 6  23167182.027 6      -843.520 6                                                 123494055.472 6 123494301.449 6  96050976.801 6  96050983.802 6        41.500          39.800          39.700          39.100
R15  24466030.258 6  24466029.191 6  24466032.910 6  24466032.848 6      2060.574 6                                                 130739072.434 6 130739054.413 6 101685935.979 6 101685942.972 6        41.500          39.800          37.400          36.900
R21  24088834.992 6  24088833.266 6  24088837.535 6  24088837.609 6     -3329.352 6                                                 128904319.112 6 128904321.125 6 100258962.689 6 100258987.698 6        40.800          39.900          36.500          36.500
R22  20515993.578 8  20515992.836 8  20515994.273 8  20515994.770 8     -1841.980 8                                                 109515807.882 8 109515815.886 8  85178975.705 8  85178996.708 8        52.800          51.500          49.200          49.500
R23  20055154.992 8  20055154.094 8                                      1879.227 8                                                 107281486.822 8 107281797.818 8                                        50.800          49.300
R24  23371196.844 7  23371196.195 7  23371199.598 6  23371199.348 6      3476.508 7                                                 124976284.007 7 124976285.028 7  97203782.393 6  97203792.372 6        44.700          43.400          41.800          40.900
S23  38478089.297 7  38478072.813 7         4.363 7                 202204883.211 7 150994947.473 7        44.200          42.300
S26  40286562.828 5                       -78.723 5                 211707143.361 5                        33.300
S36  37806291.094 7  37806275.207 7         -.238 7                 198674587.317 7 148360074.825 7        45.600          46.300
S48  67108863.984 6                       -32.492 6                 400806448.394 6                        39.800
> 2023 01 01 01 00 01.0000000  0 50
C05                  39902334.688 5                  39902323.996 6                  39902326.598 6                       -18.855 5                       -15.356 6                       -14.613 6                 207781917.623 5                 168839805.329 6                 160670141.432 6                        35.200                          37.200                          39.800
C06                  40000219.859 5                  40000206.164 6                  40000210.516 6                      1162.020 5                       944.438 6                       898.744 6                 208291647.299 5                 169253979.282 6                 161064283.416 6                        35.500                          36.600                          38.500
C09                  40372374.531 6                  40372361.172 6                  40372368.105 6                      1497.031 6                      1216.451 6                      1157.591 6                 210229560.286 6                 170828690.999 6                 162562809.232 6                        37.300                          36.500                          39.600
C14                  23681040.289 7                  23681027.082 7                  23681033.191 7                     -2324.266 7                     -1888.540 7                     -1797.159 7                 123313483.536 7                 100202283.184 7                  95353811.293 7                        46.200                          47.300                          47.800
C16                  40171753.734 6                  40171743.996 6                  40171751.141 6                       953.699 6                       775.028 6                       737.525 6                 209184871.687 6                 169979806.192 6                 161755000.341 6                        39.100                          36.400                          38.400
C27  22489835.867 8  22489836.984 8  22489833.352 8  22489827.613 8  22489830.895 7                      1847.906 8      1830.973 8      1379.923 8      1487.913 8      1415.918 7                 118184884.250 8 117110496.770 8  88254960.283 8  95161834.402 8  90557245.286 7                        50.500          51.400          51.000          51.300          45.200
C28  21792867.969 8  21792869.656 8  21792865.996 8  21792860.258 8  21792863.965 7                      -881.314 8      -873.449 8      -658.130 8      -709.633 8      -675.296 7                 114522321.106 8 113481223.904 8  85519935.305 8  92212767.297 8  87750872.203 7                        52.100          51.600          52.500          52.300          47.200
C30  26684228.922 5  26684230.055 5  26684227.492 5  26684222.492 5  26684226.426 4                      3063.125 5      3035.328 5      2287.374 5      2466.434 5                                 140226561.751 5 138951790.308 5 104714649.417 5 112909680.044 5 107446321.00514                        35.400          34.400          35.400          35.000          28.000
C32  26871268.113 5  26871270.125 5  26871270.168 6  26871262.305 6  26871267.418 5                      3501.689 5      3469.824 5      2614.886 6      2819.547 6      2683.112 5                 141209456.299 5 139925761.461 5 105448648.270 6 113701116.142 6 108199462.508 5                        35.500          35.400          40.100          37.700          32.300
C33  22490763.594 8  22490764.563 8  22490785.949 8  22490767.414 8  22490783.441 7                      -895.833 8      -887.934 8      -668.968 8      -721.322 8      -686.425 7                 118189880.295 8 117115448.529 8  88258813.931 8  95165958.922 8  90561207.439 7                        53.000          51.800          53.300          52.100          47.300
C36  27217771.375 6  27217772.539 6  27217775.438 6  27217768.543 6  27217773.227 5                      -753.171 6      -746.637 6      -562.435 6      -606.465 6      -577.118 5                 143030346.813 6 141730087.468 6 106808400.272 6 115167292.711 6 109594695.588 5                        36.000          37.400          40.500          40.400          33.500
C39  40042380.383 6  40042380.977 6  40042375.207 7  40042368.750 6  40042372.984 5                       611.685 6       606.078 6       456.743 7       492.490 6       468.665 5                 210424123.658 6 208511185.676 6 157134898.557 7 169432375.560 6 161234049.671 5                        40.800          39.400          42.800          39.900          35.300
C41  22729421.125 8  22729421.656 8  22729428.766 8  22729418.445 8  22729426.238 7                      2218.200 8      2197.840 8      1656.452 8      1786.088 8      1699.658 7                 119443965.117 8 118358120.960 8  89195217.098 8  96175674.812 8  91522034.691 7                        51.800          51.000          53.300          51.200          46.100
C42  26193419.934 6  26193420.906 6  26193428.004 6  26193420.328 6  26193425.766 5                     -3101.640 6     -3073.496 6     -2316.152 6     -2497.378 6     -2376.539 5                 137647399.486 6 136396077.514 6 102788693.256 6 110833000.199 6 105470111.286 5                        39.400          38.300          41.600          40.800          35.500
C43  25629805.398 6  25629806.789 6  25629804.871 6  25629797.582 6  25629802.281 5                     -2938.774 6     -2912.145 6     -2194.527 6     -2366.277 6     -2251.778 5                 134685732.221 6 133461339.816 6 100577112.092 6 108448313.630 6 103200731.575 5                        41.300          40.800          41.800          40.300          35.700
E02  27711141.172 6  27711142.082 6  27711134.941 7  27711139.563 6  27711142.270 7      1155.043 6       862.719 6       937.743 7       885.236 6       873.977 7 145623031.530 6 108744471.468 6 118200488.512 7 111581275.282 6 110162882.667 7        38.600          39.100          43.600          40.600          44.200
E04  26044204.953 7  26044205.957 7  26044198.262 7  26044203.789 7  26044206.066 8      2888.020 7      2156.664 7      2344.233 7      2212.950 7      2184.808 8 136863306.417 7 102203167.533 7 111090354.680 7 104869315.683 7 103536254.906 8        45.300          47.000          47.600          46.800          50.700
E10  23637564.602 8  23637566.410 8  23637559.242 9  23637563.777 8  23637566.117 9       386.949 8       289.024 8       314.159 9       296.567 8       292.794 9 124216295.910 8  92758964.688 8 100824919.861 9  95178750.141 8  93968863.210 9        53.100          53.000          57.300          53.100          56.800
E11  24418817.281 7  24418815.809 7  24418808.031 8  24418813.754 7  24418815.855 8      1470.602 7      1098.273 7      1193.762 8      1126.921 7      1112.596 8 128321766.393 7  95824690.910 7 104157239.840 8  98324447.546 7  97074596.025 8        46.500          45.900          50.800          46.100          48.600
E12  23870695.859 8  23870694.953 8  23870686.305 8  23870692.680 8  23870694.797 8      -728.289 8      -543.787 8      -591.075 8      -557.977 8      -550.874 8 125441379.795 8  93673770.052 8 101819274.099 8  96117423.085 8  94895602.360 8        48.500          50.100          53.600          50.200          53.900
E19  25962485.570 7  25962486.840 7  25962478.867 7  25962484.188 7  25962486.605 8       472.809 7       353.249 7       383.940 7       362.445 7       357.845 8 136433795.325 7 101882385.500 7 110741692.078 7 104540177.992 7 103211287.042 8        45.700          45.300          47.400          45.500          49.000
E24  27357236.492 7  27357238.684 7  27357231.172 7  27357235.559 7  27357237.984 8     -2874.453 7     -2146.465 7     -2333.113 7     -2202.471 7     -2174.487 8 143763252.156 7 107355676.178 7 116690920.287 7 110156245.501 7 108755969.644 8        42.600          43.700          45.900          43.500          48.000
E25  26306143.141 7  26306146.316 7  26306136.266 8  26306143.465 7  26306146.023 8     -1134.117 7      -846.699 7      -920.337 8      -868.787 7      -857.748 8 138239709.695 7 103230958.331 7 112207524.604 8 105923930.490 7 104577450.212 8        44.200          45.900          48.600          45.700          50.100
E33  27425389.000 6  27425391.129 7  27425383.645 7  27425387.680 6  27425390.598 7     -2152.809 6     -1607.639 7     -1747.408 7     -1649.578 6     -1628.591 7 144121641.661 6 107623456.211 7 116981930.558 7 110430994.366 6 109027231.067 7        41.600          43.100          44.500          41.100          46.500
G01  20520266.164 8                  20520273.684 7  20520273.699 8  20520269.656 9      1306.008 8                      1017.436 7      1017.391 8       974.992 9 107834716.051 8                  84027109.591 7  84027112.633 8  80525968.841 9        50.300                          43.200          50.500          54.500
G03  22153241.367 7                  22153248.586 6  22153249.051 7  22153246.813 8      2893.734 7                      2254.946 6      2254.947 7      2160.995 8 116415956.388 7                  90713874.624 6  90713882.624 7  86934128.227 8        45.600                          36.900          47.200          50.900
G08  21424147.703 8                  21424154.461 8  21424155.227 8  21424151.199 8     -2416.352 8                     -1882.730 8     -1882.730 8     -1804.290 8 112584599.878 8                  87728358.423 8  87728358.428 8  84072995.926 8        50.300                          53.100          50.500          53.900
G10  24661124.766 6                  24661131.984 5  24661131.117 6  24661127.633 7     -3303.211 6                     -2573.907 5     -2573.896 6     -2466.654 7 129595308.315 6                 100983535.818 5 100983481.805 6  96775861.032 7        39.400                          34.000          39.800          43.300
G14  23210299.594 6  23210297.801 7  23210304.004 5  23210304.363 7  23210305.656 7       208.566 6       208.847 7       162.712 5       162.726 7       155.953 7 121970950.815 6 121970959.807 7  95042316.735 5  95042322.728 7  91082224.202 7        40.400          44.100          30.200          44.100          47.600
G17  24664022.375 5                  24664027.129 3  24664026.785 6                      3264.582 5                      2543.885 3      2543.893 6                 129610240.122 5                 100995066.678 3 100995071.688 6                        34.700                          22.000          38.300
G21  20849396.742 8                  20849400.293 7                                      -244.344 8                      -190.348 7                                 109564340.831 8                  85374839.423 7                                        49.000                          43.900
G22  22395181.719 7                  22395186.488 5                                      1259.387 7                       981.526 5                                 117687629.321 7                  91704575.876 5                                        46.100                          33.400
G27  23901713.625 6                  23901720.289 6  23901720.551 6  23901717.652 7     -3597.324 6                     -2803.000 6     -2803.004 6     -2686.226 7 125604352.419 6                  97873585.705 6  97873584.709 6  93795510.478 7        40.200                          36.900          40.400          44.900
G32  22886757.992 7                  22886764.063 7  22886764.363 7  22886760.754 7      -651.816 7                      -507.670 7      -507.652 7      -486.510 7 120270727.051 7                  93717505.572 7  93717508.556 7  89812571.682 7        44.900                          45.300          45.500          47.600
I06  38482339.234 6        65.129 6 151013043.481 6        38.000
I09  37685541.414 6         9.207 6 147886220.741 6        39.500
R01  23549615.672 6  23549615.160 6  23549620.051 5  23549620.281 5      4547.582 6      4547.650 6      3537.083 5      3537.053 5 125886227.360 6 125886208.358 6  97911504.459 5  97911527.455 5        40.200          37.800          34.300          33.700
R06  23608412.688 5  23608411.398 5                                     -4120.234 5     -4120.078 5                                 125979054.082 5 125979023.107 5                                        33.200          31.100
R07  20045784.672 9  20045783.895 8  20045787.703 8  20045787.145 8     -1479.699 9     -1479.375 8     -1150.619 8     -1150.625 8 107306717.755 9 107306747.760 8  83460860.078 8  83460802.088 8        54.000          51.800          50.200          49.800
R08  20023439.992 8  20023439.805 8  20023441.910 8  20023441.852 8      2509.742 8      2510.089 8      1952.290 8      1952.282 8 107224685.448 8 107224700.449 8  83397020.283 8  83397045.299 8        51.600          49.800          50.400          49.800
R14  23167337.914 6  23167336.090 6  23167341.113 6  23167340.387 6      -844.227 6      -843.816 6      -656.286 6      -656.280 6 123494899.266 6 123495145.265 6  96051633.087 6  96051640.082 6        41.700          40.000          39.500          39.500
R15  24465645.023 6  24465644.523 6  24465647.043 6  24465647.211 6      2060.020 6      2060.302 6      1602.505 6      1602.487 6 130737012.095 6 130736994.111 6 101684333.474 6 101684340.485 6        41.800          39.900          37.100          36.700
R21  24089456.047 6  24089455.137 6  24089458.813 6  24089459.711 6     -3329.434 6     -3329.351 6     -2589.508 6     -2589.482 6 128907648.452 6 128907650.476 6 100261552.197 6 100261577.181 6        40.800          39.800          36.700          36.500
R22  20516338.656 8  20516337.984 8  20516339.047 8  20516340.027 8     -1842.262 8     -1842.105 8     -1432.753 8     -1432.752 8 109517649.994 8 109517657.992 8  85180408.458 8  85180429.460 8        53.200          51.600          49.100          49.300
R23  20054803.938 8  20054802.832 8                                      1878.973 8      1879.146 8                                 107279607.655 8 107279918.672 8                                        51.000          49.600
R24  23370546.602 7  23370545.852 7  23370549.215 7  23370549.148 6      3476.598 7      3476.669 7      2704.083 7      2704.063 6 124972807.350 7 124972808.359 7  97201078.311 7  97201088.309 6        45.100          43.200          42.200          40.900
S23  38478088.359 7  38478071.977 7         4.461 7         3.362 7 202204878.734 7 150994944.111 7        44.200          42.600
S26  40286576.063 5                       -78.938 5                 211707222.053 5                        33.100
S36  37806290.891 7  37806275.266 7         -.094 7         -.051 7 198674587.418 7 148360074.876 7        45.600          45.900
S48  67108863.984 6                       -32.379 6                 400806480.695 6                        39.900
> 2023 01 01 01 00 02.0000000  0 50
C05                  39902338.391 5                  39902327.582 6                  39902330.477 6                       -19.074 5                       -15.417 6                       -14.678 6                 207781936.598 5                 168839820.746 6                 160670156.109 6                        35.100                          37.400                          39.800
C06                  39999996.867 5                  39999983.004 6                  39999987.371 6                      1161.824 5                       944.268 6                       898.574 6                 208290485.240 5                 169253035.013 6                 161063384.842 6                        35.000                          36.500                          38.400
C09                  40372087.391 6                  40372073.793 6                  40372080.500 6                      1496.957 6                      1216.354 6                      1157.503 6                 210228063.383 6                 170827474.645 6                 162561651.729 6                        37.800                          36.100                          40.000
C14                  23681486.789 7                  23681473.566 7                  23681479.410 7                     -2324.668 7                     -1888.807 7                     -1797.409 7                 123315807.982 7                 100204171.991 7                  95355608.702 7                        45.900                          47.400                          47.900
C16                  40171570.859 6                  40171560.848 6                  40171567.984 6                       953.391 6                       774.846 6                       737.346 6                 209183918.130 6                 169979031.346 6                 161754262.995 6                        39.200                          36.000                          38.300
C27  22489484.348 8  22489485.219 8  22489481.715 8  22489475.996 8  22489479.289 7                      1847.635 8      1830.621 8      1379.732 8      1487.701 8      1415.718 7                 118183036.615 8 117108665.937 8  88253580.551 8  95160346.702 8  90555829.568 7                        50.400          51.600          50.900          51.000          45.300
C28  21793035.914 8  21793037.367 8  21793033.793 8  21793028.004 8  21793031.750 7                      -881.711 8      -873.922 8      -658.410 8      -709.945 8      -675.590 7                 114523202.817 8 113482097.593 8  85520593.715 8  92213477.242 8  87751547.794 7                        52.000          51.900          52.600          52.400          47.100
C30  26683646.020 5  26683646.797 5  26683644.559 5  26683639.453 5  26683643.531 4                      3063.204 5      3035.309 5      2287.467 5      2466.473 5      2347.122 4                 140223498.547 5 138948754.958 5 104712361.951 5 112907213.571 5 107443973.882 4                        35.500          34.100          35.600          35.500          27.900
C32  26870602.148 5  26870603.508 5  26870603.758 6  26870595.973 6  26870601.082 5                      3501.692 5      3469.566 5      2614.912 6      2819.497 6      2683.084 5                 141205954.606 5 139922291.653 5 105446033.359 6 113698296.645 6 108196779.423 5                        35.300          35.300          40.400          37.900          32.600
C33  22490934.137 8  22490935.156 8  22490956.559 8  22490938.055 8  22490953.957 7                      -896.346 8      -888.457 8      -669.353 8      -721.726 8      -686.804 7                 118190776.641 8 117116336.727 8  88259483.283 8  95166680.648 8  90561894.244 7                        53.000          51.900          53.200          52.100          47.300
C36  27217914.867 5  27217916.008 6  27217918.863 6  27217911.926 6  27217916.648 5                      -753.593 5      -746.945 6      -562.781 6      -606.801 6      -577.446 5                 143031100.406 5 141730834.226 6 106808963.054 6 115167899.512 6 109595273.034 5                        35.700          37.700          40.600          40.400          33.000
C39  40042264.184 6  40042264.531 6  40042258.766 7  40042252.504 6  40042256.629 5                       611.401 6       605.855 6       456.600 7       492.349 6       468.522 5                 210423512.258 6 208510579.770 6 157134441.957 7 169431883.211 6 161233581.149 5                        40.800          39.500          42.500          39.700          35.200
C41  22728998.977 8  22728999.820 8  22729006.734 8  22728996.434 8  22729004.211 7                      2217.777 8      2197.363 8      1656.137 8      1785.744 8      1699.334 7                 119441747.340 8 118355923.342 8  89193560.961 8  96173889.068 8  91520335.356 7                        51.800          51.000          53.000          51.000          46.100
C42  26194010.035 6  26194010.898 6  26194018.250 6  26194010.574 6  26194016.043 5                     -3101.740 6     -3073.859 6     -2316.246 6     -2497.542 6     -2376.692 5                 137650501.225 6 136399151.101 6 102791009.502 6 110835497.741 6 105472487.979 5                        38.800          38.800          41.800          40.800          35.300
C43  25630364.793 6  25630365.914 6  25630364.078 6  25630356.867 6  25630361.543 5                     -2938.881 6     -2912.367 6     -2194.653 6     -2366.397 6     -2251.894 5                 134688671.102 6 133464252.009 6 100579306.745 6 108450680.027 6 103202983.469 5                        41.100          41.400          41.800          40.300          35.600
E02  27710921.391 6  27710922.566 6  27710915.449 7  27710919.973 6  27710922.512 7      1154.523 6       862.379 6       937.366 7       884.888 6       873.630 7 145621876.701 6 108743609.089 6 118199551.146 7 111580390.394 6 110162009.037 7        38.700          39.000          43.500          40.500          43.900
E04  26043655.156 7  26043656.355 7  26043648.563 7  26043654.234 7  26043656.520 8      2887.781 7      2156.571 7      2344.091 7      2212.826 7      2184.699 8 136860418.491 7 102201010.962 7 111088010.589 7 104867102.856 7 103534070.207 8        45.100          46.900          47.600          46.900          50.400
E10  23637490.961 8  23637492.801 8  23637485.590 9  23637490.164 8  23637492.488 9       386.719 8       288.909 8       314.026 9       296.441 8       292.671 9 124215909.028 8  92758675.780 8 100824605.835 9  95178453.700 8  93968570.540 9        53.100          53.300          57.300          53.300          57.200
E11  24418537.664 7  24418536.035 7  24418528.133 8  24418533.867 7  24418536.020 8      1470.547 7      1098.175 7      1193.675 8      1126.827 7      1112.499 8 128320295.783 7  95823592.735 7 104156046.164 8  98323320.719 7  97073483.526 8        46.200          45.900          50.800          45.900          48.500
E12  23870834.383 8  23870833.586 8  23870825.090 8  23870831.176 8  23870833.398 8      -728.555 8      -543.926 8      -591.223 8      -558.113 8      -551.032 8 125442108.180 8  93674313.978 8 101819865.322 8  96117981.198 8  94896153.392 8        48.600          49.800          53.600          50.500          53.900
E19  25962395.758 7  25962397.012 7  25962388.785 7  25962394.332 7  25962396.684 8       472.195 7       352.886 7       383.576 7       362.094 7       357.487 8 136433322.757 7 101882032.613 7 110741308.502 7 104539815.898 7 103210929.555 8        45.700          45.300          47.300          45.700          49.000
E24  27357783.352 7  27357785.473 7  27357778.000 7  27357782.492 7  27357784.988 8     -2874.609 7     -2146.544 7     -2333.201 7     -2202.521 7     -2174.521 8 143766126.654 7 107357822.722 7 116693253.488 7 110158448.021 7 108758144.165 8        42.500          43.700          45.900          43.800          48.200
E25  26306358.914 7  26306362.160 7  26306352.336 8  26306359.277 7  26306361.863 8     -1134.602 7      -847.023 7      -920.691 8      -869.135 7      -858.080 8 138240843.990 7 103231805.353 7 112208445.296 8 105924799.625 7 104578308.292 8        43.500          45.500          48.600          45.500          50.100
E33  27425798.594 6  27425800.691 7  27425793.250 7  27425797.516 6  27425800.285 7     -2153.039 6     -1607.666 7     -1747.496 7     -1649.598 6     -1628.654 7 144123794.570 6 107625063.877 7 116983678.055 7 110432643.964 6 109028859.721 7        41.700          43.200          44.600          41.200          46.400
G01  20520017.984 8                  20520025.461 6  20520025.320 8  20520021.266 9      1305.043 8                      1017.087 6      1017.125 8       974.748 9 107833410.722 8                  84026092.504 6  84026095.508 8  80524994.093 9        51.200                          39.600          50.800          54.400
G03  22152691.172 7                  22152697.965 6  22152698.297 7  22152696.184 8      2893.305 7                      2254.682 6      2254.669 7      2160.724 8 116413062.878 7                  90711619.942 6  90711627.955 7  86931967.503 8        45.200                          36.800          47.200          51.000
G08  21424607.594 8                  21424614.418 8  21424615.082 8  21424611.074 8     -2416.895 8                     -1883.086 8     -1883.086 8     -1804.614 8 112587016.505 8                  87730241.509 8  87730241.514 8  84074800.540 8        49.700                          53.100          50.500          53.700
G10  24661753.570 6                  24661760.785 5  24661760.445 6  24661756.184 7     -3303.250 6                     -2573.912 5     -2573.934 6     -2466.682 7 129598611.499 6                 100986109.730 5 100986055.740 6  96778327.714 7        39.200                          34.000          39.600          43.600
G14  23210260.023 6  23210258.270 7  23210264.438 4  23210264.883 7  23210266.043 7       207.895 6       208.208 7       162.264 4       162.261 7       155.490 7 121970742.580 6 121970751.598 7  95042154.471 4  95042160.467 7  91082068.712 7        40.400          44.300          28.600          44.200          47.200
G17  24663401.813 5                  24663405.832 3  24663405.676 6                      3264.824 5                      2543.885 3      2543.815 6                                                                 100992527.873 6                        33.500                          21.100          38.600
G21  20849443.266 8                  20849446.820 7                                      -244.738 8                      -190.531 7                                 109564585.348 8                  85375029.954 7                                        49.100                          43.700
G22  22394942.031 7                  22394946.910 5                                      1258.781 7                       981.101 5                                 117686370.235 7                  91703594.775 5                                        46.000                          34.000
G27  23902398.172 6                  23902404.938 6  23902405.039 6  23902402.219 7     -3597.637 6                     -2803.159 6     -2803.139 6     -2686.331 7 125607949.797 6                  97876388.863 6  97876387.849 6  93798196.809 7        39.800                          36.900          40.500          44.900
G32  22886882.086 7                  22886888.102 7  22886888.316 7  22886885.000 7      -652.391 7                      -508.142 7      -508.157 7      -486.978 7 120271379.166 7                  93718013.714 7  93718016.713 7  89813058.659 7        44.500                          45.300          44.900          47.900
I06  38482322.438 6        65.293 6 151012978.156 6        37.900
I09  37685539.461 6         9.059 6 147886211.615 6        39.600
R01  23548765.172 6  23548764.480 6  23548769.672 5  23548769.527 5      4547.449 6      4547.510 6      3536.986 5      3536.955 5 125881679.842 6 125881660.849 6  97907967.473 5  97907990.500 5        40.200          38.100          34.400          33.800
R06  23609185.281 5  23609183.805 5                                     -4120.379 5     -4120.288 5                                 125983174.400 5 125983143.395 5                                        32.600          31.000
R07  20046060.578 9  20046060.395 8  20046064.117 8  20046063.723 8     -1480.609 9     -1480.227 8     -1151.279 8     -1151.272 8 107308197.962 9 107308227.987 8  83462011.357 8  83461953.360 8        54.100          51.800          50.200          49.800
R08  20022971.375 8  20022971.188 8  20022973.172 8  20022973.246 8      2508.863 8      2509.296 8      1951.687 8      1951.674 8 107222176.144 8 107222191.153 8  83395068.596 8  83395093.624 8        51.800          50.100          50.200          49.900
R14  23167496.797 7  23167494.652 6  23167499.617 6  23167498.797 6      -845.023 7      -844.554 6      -656.871 6      -656.885 6 123495743.832 7 123495989.819 6  96052289.958 6  96052296.967 6        42.300          39.900          39.800          39.400
R15  24465259.578 7  24465258.738 6  24465262.156 6  24465261.738 6      2059.383 7      2059.707 6      1601.924 6      1601.974 6 130734952.410 7 130734934.405 6 101682731.550 6 101682738.511 6        42.200          39.800          37.200          36.400
R21  24090078.367 6  24090077.746 6  24090082.609 6  24090081.832 6     -3329.648 6     -3329.489 6     -2589.608 6     -2589.615 6 128910977.952 6 128910979.965 6 100264141.805 6 100264166.796 6        41.100          39.800          36.900          36.200
R22  20516683.914 8  20516683.195 8  20516685.059 8  20516685.191 8     -1842.777 8     -1842.518 8     -1433.040 8     -1433.071 8 109519492.512 8 109519500.510 8  85181841.498 8  85181862.532 8        52.600          51.700          49.000          49.400
R23  20054452.664 8  20054451.652 8                                      1878.590 8      1878.822 8                                 107277728.839 8 107278039.850 8                                        51.000          49.600
R24  23369896.547 7  23369895.570 7  23369899.316 7  23369898.941 6      3476.633 7      3476.726 7      2704.092 7      2704.110 6 124969330.631 7 124969331.633 7  97198374.219 7  97198384.198 6        45.000          43.200          42.200          40.800
S23  38478087.016 7  38478071.141 7         4.422 7         3.335 7 202204874.260 7 150994940.775 7        44.700          42.700
S26  40286597.016 5                       -78.836 5                 211707300.748 5                        32.900
S36  37806291.516 7  37806275.316 7         -.406 7         -.084 7 198674587.662 7 148360074.959 7        45.700          45.900
S48  67108863.984 6                       -32.371 6                 400806513.013 6                        40.200
> 2023 01 01 01 00 03.0000000  0 50
C05                  39902342.008 5                  39902331.242 6                  39902334.152 6                       -19.047 5                       -15.440 6                       -14.691 6                 207781955.601 5                 168839836.186 6                 160670170.800 6                        35.100                          37.200                          39.500
C06                  39999773.664 5                  39999759.914 6                  39999764.500 6                      1161.863 5                       944.089 6                       898.406 6                 208289323.396 5                 169252090.924 6                 161062486.436 6                        35.300                          36.800                          38.500
C09                  40371799.859 6                  40371786.348 5                  40371793.367 6                      1496.523 6                      1216.175 5                      1157.327 6                 210226566.695 6                 170826258.470 5                 162560494.402 6                        37.600                          35.900                          39.300
C14                  23681933.094 7                  23681919.984 7                  23681925.852 8                     -2325.059 7                     -1889.156 7                     -1797.750 8                 123318132.867 7                 100206061.147 7                  95357406.452 8                        46.400                          47.600                          48.000
C16                  40171387.930 6                  40171377.813 5                  40171384.789 6                       953.188 6                       774.642 5                       737.158 6                 209182964.816 6                 169978256.704 5                 161753525.837 6                        38.800                          35.700                          38.400
C27  22489132.645 8  22489133.750 8  22489130.273 8  22489124.438 8  22489127.773 7                      1847.313 8      1830.406 8      1379.483 8      1487.455 8      1415.482 7                 118181189.302 8 117106835.408 8  88252201.068 8  95158859.246 8  90554414.086 7                        50.400          51.800          50.700          50.800          45.200
C28  21793203.750 8  21793205.344 8  21793201.688 8  21793195.965 8  21793199.617 7                      -882.140 8      -874.266 8      -658.743 8      -710.296 8      -675.933 7                 114524084.958 8 113482971.719 8  85521252.458 8  92214187.538 8  87752223.727 7                        52.000          51.400          52.300          52.300          47.200
C30  26683063.074 5  26683064.313 5  26683061.520 5  26683056.570 5  26683060.621 4                      3063.141 5      3035.223 5      2287.400 5      2466.400 5      2347.063 4                 140220435.407 5 138945719.693 5 104710074.550 5 112904747.171 5 107441626.820 4                        35.800          34.400          35.200          35.400          26.800
C32  26869935.793 5  26869937.180 5  26869937.438 6  26869929.684 6  26869934.684 5                      3501.607 5      3469.867 5      2614.794 6      2819.490 6      2683.060 5                 141202452.999 5 139918821.848 5 105443418.565 6 113695477.155 6 108194096.363 5                        35.200          35.400          40.200          37.600          32.300
C33  22491104.734 8  22491105.813 8  22491127.219 8  22491108.742 8  22491124.699 7                      -896.934 8      -889.027 8      -669.789 8      -722.212 8      -687.265 7                 118191673.575 8 117117225.505 8  88260153.072 8  95167402.860 8  90562581.509 7                        53.000          51.800          53.200          52.200          47.300
C36  27218058.277 5  27218059.180 6  27218062.367 6  27218055.422 6  27218060.250 5                      -754.200 5      -747.449 6      -563.153 6      -607.238 6      -577.847 5                 143031854.605 5 141731581.513 6 106809526.207 6 115168506.750 6 109595850.881 5                        35.000          37.600          40.400          39.900          33.000
C39  40042147.938 6  40042148.422 6  40042142.559 7  40042136.141 6  40042140.301 5                       611.209 6       605.531 6       456.406 7       492.118 6       468.302 5                 210422901.049 6 208509974.155 6 157133985.551 7 169431391.093 6 161233112.848 5                        40.900          39.900          42.600          39.800          35.000
C41  22728577.113 8  22728577.695 8  22728584.777 8  22728574.555 8  22728582.262 7                      2217.308 8      2196.945 8      1655.772 8      1785.360 8      1698.976 7                 119439530.032 8 118353726.198 8  89191905.189 8  96172103.708 8  91518636.380 7                        51.700          50.800          52.800          51.400          46.000
C42  26194600.242 6  26194601.664 6  26194608.570 6  26194600.918 6  26194606.227 5                     -3101.989 6     -3073.844 6     -2316.386 6     -2497.681 6     -2376.827 5                 137653603.214 6 136402224.861 6 102793325.888 6 110837995.422 6 105474864.806 5                        38.700          38.700          41.700          41.300          35.400
C43  25630923.988 6  25630925.367 6  25630923.391 6  25630916.133 6  25630920.848 5                     -2939.104 6     -2912.535 6     -2194.758 6     -2366.552 6     -2252.039 5                 134691610.206 6 133467164.399 6 100581501.503 6 108453046.580 6 103205235.508 5                        41.300          41.100          41.900          40.400          35.500
E02  27710701.445 6  27710702.836 6  27710695.594 7  27710700.219 6  27710702.824 7      1154.238 6       861.987 6       936.983 7       884.485 6       873.243 7 145620722.340 6 108742747.102 6 118198614.163 7 111579505.909 6 110161135.794 7        38.900          39.300          43.400          40.900          43.800
E04  26043105.813 7  26043106.898 7  26043099.121 7  26043104.676 7  26043106.992 8      2887.664 7      2156.412 7      2343.921 7      2212.659 7      2184.544 8 136857530.780 7 102198854.550 7 111085666.668 7 104864890.197 7 103531885.663 8        45.500          47.100          47.700          46.600          50.300
E10  23637417.414 8  23637419.176 8  23637412.008 9  23637416.637 8  23637418.914 9       386.555 8       288.741 8       313.843 9       296.267 8       292.503 9 124215522.379 8  92758387.039 8 100824291.992 9  95178157.432 8  93968278.037 9        52.500          53.100          57.300          53.300          57.200
E11  24418257.688 7  24418256.230 7  24418248.352 8  24418254.098 7  24418256.207 8      1470.332 7      1098.039 7      1193.515 8      1126.683 7      1112.361 8 128318825.372 7  95822494.696 7 104154852.649 8  98322194.036 7  97072371.165 8        46.400          45.900          50.800          46.000          48.500
E12  23870972.938 8  23870972.211 8  23870963.633 8  23870969.813 8  23870972.063 8      -728.680 8      -544.097 8      -591.403 8      -558.273 8      -551.179 8 125442836.787 8  93674858.075 8 101820456.725 8  96118539.472 8  94896704.570 8        48.600          49.700          53.600          50.800          53.800
E19  25962306.102 7  25962306.965 7  25962299.074 7  25962304.566 7  25962306.855 8       471.801 7       352.452 7       383.128 7       361.665 7       357.058 8 136432850.750 7 101881680.161 7 110740925.374 7 104539454.233 7 103210572.497 8        45.700          45.300          47.400          45.500          48.800
E24  27358330.516 7  27358332.543 7  27358325.125 7  27358329.434 7  27358332.016 7     -2874.691 7     -2146.632 7     -2333.291 7     -2202.648 7     -2174.633 7 143769001.273 7 107359969.354 7 116695586.779 7 110160650.669 7 108760318.798 7        42.200          43.600          46.000          44.000          47.800
E25  26306575.070 7  26306578.070 7  26306568.141 8  26306575.168 7  26306577.809 8     -1134.895 7      -847.402 7      -921.063 8      -869.483 7      -858.438 8 138241978.737 7 103232652.755 7 112209366.358 8 105925669.109 7 104579166.730 8        43.700          45.700          48.600          45.100          50.200
E33  27426208.430 6  27426210.281 7  27426202.992 7  27426207.238 6  27426210.020 7     -2153.129 6     -1607.769 7     -1747.585 7     -1649.704 6     -1628.744 7 144125947.593 6 107626671.646 7 116985425.640 7 110434293.668 6 109030488.464 7        41.500          42.700          44.600          41.400          46.400
G01  20519769.469 8                  20519776.965 6  20519777.035 8  20519772.953 9      1304.789 8                      1016.809 6      1016.824 8       974.453 9 107832105.792 8                  84025075.695 6  84025078.684 8  80524019.640 9        50.900                          39.600          50.700          54.600
G03  22152140.531 7                  22152147.488 6  22152147.844 7  22152145.656 8      2892.883 7                      2254.332 6      2254.344 7      2160.416 8 116410169.816 7                  90709365.610 6  90709373.611 7  86929807.087 8        45.100                          36.800          46.900          51.400
G08  21425067.156 8                  21425074.297 8  21425074.957 8  21425071.074 8     -2417.344 8                     -1883.477 8     -1883.469 8     -1804.992 8 112589433.636 8                  87732124.985 8  87732124.983 8  84076605.532 8        49.700                          53.200          50.800          53.900
G10  24662382.227 6                  24662389.383 5  24662388.391 6  24662384.746 7     -3303.336 6                     -2574.002 5     -2574.007 6     -2466.751 7 129601914.811 6                 100988683.732 5 100988629.746 6  96780794.465 7        39.600                          33.400          39.500          43.300
G14  23210220.672 6  23210218.773 7  23210225.020 4  23210225.477 7  23210226.574 7       207.219 6       207.513 7       161.688 4       161.695 7       154.959 7 121970535.083 6 121970544.086 7  95041992.784 4  95041998.772 7  91081913.753 7        40.500          44.300          29.300          44.000          46.600
G17  24662780.281 5                  24662784.477 3  24662784.805 6                      3264.441 5                      2543.885 3      2543.698 6                                                                 100989984.175 6                        33.400                          21.100          38.100
G21  20849489.883 8                  20849493.348 7                                      -244.867 8                      -190.759 7                                 109564830.152 8                  85375220.713 7                                        49.100                          43.700
G22  22394702.141 7                  22394707.414 5                                      1258.266 7                       980.648 5                                 117685111.734 7                  91702614.127 5                                        45.300                          33.600
G27  23903082.781 6                  23903089.469 6  23903089.906 6  23903086.813 7     -3597.516 6                     -2803.263 6     -2803.289 6     -2686.482 7 125611547.324 6                  97879192.126 6  97879191.138 6  93800883.291 7        39.200                          37.100          40.200          45.100
G32  22887006.445 7                  22887012.402 7  22887012.371 7  22887009.180 8      -652.914 7                      -508.664 7      -508.665 7      -487.472 8 120272031.954 7                  93718522.378 7  93718525.378 7  89813546.132 8        44.600                          45.300          45.000          48.000
I06  38482306.367 6        65.273 6 151012912.891 6        38.300
I09  37685537.367 6         8.789 6 147886202.569 6        39.600
R01  23547913.617 6  23547913.637 6  23547919.328 5  23547918.902 5      4547.406 6      4547.359 6      3536.835 5      3536.842 5 125877132.471 6 125877113.490 6  97904430.638 5  97904453.658 5        39.800          37.900          34.300          33.700
R06  23609958.063 5  23609956.070 5                                     -4120.797 5     -4120.616 5                                 125987295.021 5 125987264.011 5                                        33.000          31.400
R07  20046337.625 9  20046337.129 8  20046340.852 8  20046340.469 8     -1481.426 9     -1481.098 8     -1151.970 8     -1151.969 8 107309679.067 9 107309709.085 8  83463163.327 8  83463105.329 8        54.000          52.100          50.300          50.100
R08  20022503.211 8  20022502.648 8  20022504.445 8  20022504.895 8      2508.148 8      2508.470 8      1951.022 8      1951.035 8 107219667.674 8 107219682.683 8  83393117.574 8  83393142.590 8        51.700          49.800          50.300          49.400
R14  23167656.250 7  23167653.512 6  23167658.684 6  23167657.277 6      -845.688 7      -845.405 6      -657.545 6      -657.513 6 123496589.214 7 123496835.223 6  96052947.503 6  96052954.480 6        42.700          39.900          39.800          39.600
R15  24464873.789 7  24464873.402 6  24464875.746 6  24464876.543 6      2058.695 7      2058.969 6      1601.439 6      1601.412 6 130732893.443 7 130732875.436 6 101681130.110 6 101681137.099 6        42.100          40.200          36.900          36.100
R21  24090700.445 6  24090700.070 6  24090704.566 6  24090704.227 6     -3329.875 6     -3329.711 6     -2589.758 6     -2589.771 6 128914307.670 6 128914309.676 6 100266731.563 6 100266756.567 6        40.700          39.600          36.600          36.600
R22  20517029.344 8  20517028.422 8  20517029.668 8  20517030.449 8     -1843.191 8     -1842.986 8     -1433.463 8     -1433.419 8 109521335.499 8 109521343.497 8  85183274.962 8  85183295.950 8        52.700          51.200          48.800          49.700
R23  20054101.258 8  20054100.359 8                                      1878.250 8      1878.441 8                                 107275850.413 8 107276161.408 8                                        51.000          49.500
R24  23369246.523 7  23369245.840 7  23369248.480 7  23369248.832 6      3476.695 7      3476.686 7      2704.119 7      2704.099 6 124965853.931 7 124965854.947 7  97195670.099 7  97195680.099 6        45.200          43.000          42.500          41.200
S23  38478086.078 7  38478070.297 7         4.379 7         3.276 7 202204869.855 7 150994937.499 7        44.500          42.800
S26  40286609.781 5                       -78.789 5                 211707379.522 5                        33.300
S36  37806291.672 7  37806275.418 7         -.277 7         -.015 7 198674587.937 7 148360074.974 7        45.300          46.300
S48  67108863.984 6                       -32.398 6                 400806545.389 6                        40.500
> 2023 01 01 01 00 04.0000000  0 50
C05                  39902345.703 5                  39902334.910 6                  39902337.789 6                       -18.922 5                       -15.395 6                       -14.647 6                 207781974.547 5                 168839851.580 6                 160670185.447 6                        35.200                          36.500                          39.200
C06                  39999550.422 5                  39999536.773 6                  39999541.652 6                      1161.641 5                       943.981 6                       898.312 6                 208288161.684 5                 169251146.943 6                 161061588.124 6                        34.900                          37.000                          38.400
C09                  40371512.508 6                  40371499.055 5                  40371505.832 6                      1496.469 6                      1216.123 5                      1157.275 6                 210225070.083 6                 170825042.347 5                 162559337.128 6                        37.300                          35.800                          39.400
C14                  23682379.719 7                  23682366.520 7                  23682372.418 7                     -2325.402 7                     -1889.407 7                     -1797.980 7                 123320458.057 7                 100207950.554 7                  95359204.432 7                        46.500                          47.200                          47.800
C16                  40171204.664 6                  40171194.703 5                  40171201.852 6                       953.164 6                       774.553 5                       737.079 6                 209182011.619 6                 169977482.151 5                 161752788.758 6                        38.400                          35.500                          38.600
C27  22488781.152 8  22488782.352 8  22488778.754 8  22488772.930 8  22488776.309 7                      1847.104 8      1830.191 8      1379.328 8      1487.269 8      1415.305 7                 118179342.198 8 117105005.106 8  88250821.740 8  95157371.977 8  90552998.781 7                        50.300          51.900          51.100          50.700          45.200
C28  21793371.598 8  21793373.289 8  21793369.574 8  21793363.820 8  21793367.566 7                      -882.501 8      -874.664 8      -659.008 8      -710.583 8      -676.198 7                 114524967.459 8 113483846.191 8  85521911.466 8  92214898.120 8  87752899.925 7                        52.000          51.400          52.100          52.400          47.100
C30  26682479.992 5  26682480.953 5  26682478.582 5  26682473.672 5  26682477.680 4                      3063.160 5      3035.207 5      2287.456 5      2466.468 5      2347.127 4                 140217372.246 5 138942684.333 5 104707787.094 5 112902280.703 5 107439279.693 4                        35.000          34.600          35.300          35.100          26.900
C32  26869269.449 5  26869271.039 5  26869271.086 6  26869263.480 6  26869268.355 5                      3501.589 5      3469.633 5      2614.827 6      2819.469 6      2683.029 5                 141198951.410 5 139915352.082 5 105440803.738 6 113692657.686 6 108191413.334 5                        35.400          35.600          40.400          38.100          32.700
C33  22491275.504 8  22491276.484 8  22491297.996 8  22491279.512 8  22491295.488 7                      -897.424 8      -889.512 8      -670.148 8      -722.601 8      -687.631 7                 118192570.999 8 117118114.771 8  88260823.220 8  95168125.461 8  90563269.140 7                        53.100          52.100          53.300          52.500          47.300
C36  27218201.898 5  27218203.172 6  27218205.949 6  27218199.055 6  27218203.895 5                      -754.559 5      -747.977 6      -563.485 6      -607.594 6      -578.193 5                 143032609.164 5 141732329.243 6 106810089.692 6 115169114.345 6 109596429.075 5                        35.100          37.400          40.600          39.700          32.800
C39  40042031.621 6  40042032.008 6  40042026.285 7  40042019.805 6  40042024.066 5                       611.010 6       605.242 6       456.268 7       491.961 6       468.158 5                 210422290.039 6 208509368.720 6 157133529.283 7 169430899.132 6 161232644.690 5                        40.900          39.400          42.700          39.500          34.600
C41  22728155.262 8  22728156.000 8  22728162.918 8  22728152.648 8  22728160.387 7                      2216.914 8      2196.531 8      1655.494 8      1785.048 8      1698.676 7                 119437313.118 8 118351529.434 8  89190249.695 8  96170318.660 8  91516937.704 7                        51.700          51.100          52.900          51.100          46.000
C42  26195190.551 6  26195191.711 6  26195198.824 6  26195191.313 6  26195196.508 5                     -3102.105 6     -3074.184 6     -2316.495 6     -2497.802 6     -2376.950 5                 137656705.319 6 136405298.777 6 102795642.383 6 110840493.224 6 105477241.756 5                        39.000          39.400          41.700          41.400          35.400
C43  25631483.293 6  25631484.641 6  25631482.750 7  25631475.332 6  25631480.125 5                     -2939.236 6     -2912.582 6     -2194.872 7     -2366.641 6     -2252.130 5                 134694549.442 6 133470076.894 6 100583696.375 7 108455413.220 6 103207487.638 5                        41.100          41.100          42.000          40.800          35.800
E02  27710481.906 6  27710483.234 6  27710476.082 7  27710480.574 6  27710483.246 7      1153.805 6       861.752 6       936.651 7       884.220 6       872.986 7 145619568.374 6 108741885.350 6 118197677.512 7 111578621.689 6 110160262.808 7        39.000          39.300          43.300          40.700          43.500
E04  26042556.438 7  26042557.398 7  26042549.723 7  26042555.180 7  26042557.512 8      2887.449 7      2156.311 7      2343.809 7      2212.562 7      2184.427 8 136854643.210 7 102196698.239 7 111083322.859 7 104862677.635 7 103529701.236 8        45.600          47.000          47.700          46.800          50.300
E10  23637343.898 8  23637345.625 8  23637338.426 9  23637343.004 8  23637345.359 9       386.398 8       288.622 8       313.735 9       296.165 8       292.396 9 124215135.853 8  92758098.417 8 100823978.258 9  95177861.268 8  93967985.641 9        52.600          53.300          57.300          53.100          57.500
E11  24417977.836 7  24417976.473 7  24417968.457 8  24417974.266 7  24417976.391 8      1470.172 7      1097.990 7      1193.468 8      1126.629 7      1112.313 8 128317355.018 7  95821396.707 7 104153659.181 8  98321067.407 7  97071258.852 8        46.400          46.100          50.800          46.100          48.500
E12  23871111.695 8  23871110.789 8  23871102.332 8  23871108.469 8  23871110.727 8      -728.828 8      -544.181 8      -591.507 8      -558.382 8      -551.286 8 125443565.528 8  93675402.256 8 101821048.232 8  96119097.854 8  94897255.856 8        48.500          49.800          53.600          50.800          53.800
E19  25962216.430 7  25962217.305 7  25962209.289 7  25962214.719 7  25962217.121 8       471.320 7       352.138 7       382.745 7       361.329 7       356.741 8 136432379.207 7 101881328.023 7 110740542.628 7 104539092.905 7 103210215.757 8        45.700          45.100          47.400          45.300          48.700
E24  27358877.664 7  27358879.672 7  27358872.230 7  27358876.457 7  27358879.055 7     -2874.734 7     -2146.651 7     -2333.341 7     -2202.666 7     -2174.651 7 143771875.948 7 107362116.005 7 116697920.120 7 110162853.335 7 108762493.449 7        42.300          43.700          46.000          43.800          47.700
E25  26306790.758 7  26306794.281 7  26306784.266 8  26306791.184 7  26306793.828 8     -1135.402 7      -847.695 7      -921.421 8      -869.832 7      -858.753 8 138243113.928 7 103233500.450 7 112210287.780 8 105926538.940 7 104580025.483 8        43.800          45.500          48.600          45.400          50.000
E33  27426618.055 6  27426620.090 7  27426612.785 7  27426616.840 6  27426619.727 7     -2153.125 6     -1607.789 7     -1747.585 7     -1649.765 6     -1628.762 7 144128100.621 6 107628279.434 7 116987173.225 7 110435943.433 6 109032117.227 7        41.400          42.700          44.500          41.200          46.700
G01  20519521.172 8                  20519528.656 6  20519528.715 8  20519524.711 9      1304.441 8                      1016.584 6      1016.584 8       974.231 9 107830801.185 8                  84024059.111 6  84024062.100 8  80523045.409 9        51.500                          39.900          50.500          54.400
G03  22151590.258 7                  22151597.105 6  22151597.734 7  22151595.246 8      2892.543 7                      2254.079 6      2254.088 7      2160.155 8 116407277.081 7                  90707111.531 6  90707119.523 7  86927646.931 8        45.500                          36.900          47.400          51.100
G08  21425527.227 8                  21425534.379 8  21425535.066 8  21425531.109 8     -2417.758 8                     -1883.806 8     -1883.806 8     -1805.317 8 112591851.188 8                  87734008.791 8  87734008.789 8  84078410.849 8        49.600                          53.300          50.500          53.700
G10  24663010.609 6                  24663017.863 5  24663017.262 6  24663013.359 7     -3303.391 6                     -2574.043 5     -2573.998 6     -2466.788 7 129605218.152 6                 100991257.775 5 100991203.744 6  96783261.254 7        38.800                          33.600          40.000          43.200
G14  23210181.297 6  23210179.473 7  23210185.613 4  23210186.105 7  23210187.129 7       206.656 6       206.910 7       161.219 4       161.224 7       154.495 7 121970328.189 6 121970337.176 7  95041831.565 4  95041837.548 7  91081759.258 7        40.400          44.300          28.900          43.900          46.900
G17  24662159.047 5                  24662163.230 3  24662163.219 6                      3264.223 5                      2543.774 3      2543.731 6                                                                 100987440.443 6                        34.000                          20.600          38.200
G21  20849536.727 8                  20849539.906 7                                      -245.164 8                      -190.916 7                                 109565075.167 8                  85375411.629 7                                        49.100                          43.600
G22  22394462.867 7                  22394467.953 5                                      1257.734 7                       980.266 5                                 117683853.735 7                  91701633.861 5                                        45.800                          32.900
G27  23903768.023 6                  23903774.316 6  23903774.293 6  23903771.410 7     -3597.789 6                     -2803.412 6     -2803.393 6     -2686.583 7 125615145.040 6                  97881995.538 6  97881994.531 6  93803569.874 7        39.200                          36.800          40.500          45.300
G32  22887130.617 7                  22887136.582 7  22887136.820 7  22887133.539 7      -653.617 7                      -509.137 7      -509.134 7      -487.911 7 120272685.343 7                  93719031.515 7  93719034.512 7  89814034.043 7        44.500                          45.300          44.900          47.900
I06  38482289.063 6        65.184 6 151012847.571 6        38.600
I09  37685534.516 6         9.020 6 147886193.526 6        40.100
R01  23547063.680 6  23547063.293 6  23547068.359 5  23547068.156 5      4547.215 6      4547.277 6      3536.770 5      3536.760 5 125872585.210 6 125872566.213 6  97900893.868 5  97900916.898 5        39.700          38.000          34.900          34.200
R06  23610730.453 5  23610728.020 5                                     -4120.926 5     -4120.856 5                                 125991415.858 5 125991384.867 5                                        33.200          31.600
R07  20046614.438 9  20046614.023 8  20046617.836 8  20046617.180 8     -1482.246 9     -1481.897 8     -1152.581 8     -1152.589 8 107311160.964 9 107311190.982 8  83464315.908 8  83464257.918 8        54.100          51.500          50.700          49.900
R08  20022034.766 8  20022034.340 8  20022036.629 8  20022036.348 8      2507.449 8      2507.731 8      1950.454 8      1950.470 8 107217159.936 8 107217174.952 8  83391167.120 8  83391192.120 8        51.700          49.900          50.200          49.400
R14  23167814.445 7  23167811.957 6  23167817.090 6  23167816.113 6      -846.508 7      -846.126 6      -658.112 6      -658.123 6 123497435.357 7 123497681.349 6  96053605.615 6  96053612.603 6        42.600          40.300          40.000          39.500
R15  24464489.430 6  24464488.699 6  24464491.168 6  24464491.523 5      2057.980 6      2058.326 6      1600.928 6      1600.906 5 130730835.132 6 130730817.110 6 101679529.182 6 101679536.192 5        41.600          39.700          37.200          35.500
R21  24091322.711 6  24091322.266 6  24091325.250 6  24091326.461 6     -3329.941 6     -3329.863 6     -2589.926 6     -2589.897 6 128917637.529 6 128917639.539 6 100269321.489 6 100269346.464 6        41.100          40.400          37.000          36.700
R22  20517374.508 8  20517373.574 8  20517374.656 8  20517375.809 8     -1843.574 8     -1843.368 8     -1433.710 8     -1433.746 8 109523178.874 8 109523186.865 8  85184708.671 8  85184729.696 8        53.000          51.300          49.300          49.600
R23  20053750.414 8  20053749.219 8                                      1877.934 8      1878.122 8                                 107273972.284 8 107274283.286 8                                        51.000          49.600
R24  23368596.117 7  23368595.383 7  23368598.469 7  23368598.605 6      3476.797 7      3476.794 7      2704.173 7      2704.176 6 124962377.143 7 124962378.153 7  97192965.926 7  97192975.923 6        44.000          43.200          42.400          41.400
S23  38478085.375 7  38478069.453 7         4.422 7         3.347 7 202204865.401 7 150994934.152 7        44.200          43.200
S26  40286630.828 5                       -78.781 5                 211707458.234 5                        33.400
S36  37806291.766 7  37806275.430 7         -.145 7         -.008 7 198674588.085 7 148360074.982 7        45.200          46.100
S48  67108863.984 6                       -32.371 6                 400806577.722 6                        40.500
> 2023 01 01 01 00 05.0000000  0 50
C05                  39902349.219 5                  39902338.566 6                  39902341.535 6                       -18.938 5                       -15.414 6                       -14.673 6                 207781993.523 5                 168839866.995 6                 160670200.120 6                        35.200                          37.100                          39.000
C06                  39999327.320 5                  39999313.746 6                  39999318.609 6                      1161.313 5                       943.817 6                       898.148 6                 208287000.176 5                 169250203.126 6                 161060689.976 6                        35.500                          36.500                          38.300
C09                  40371224.766 6                  40371211.637 6                  40371218.523 6                      1496.316 6                      1215.977 6                      1157.140 6                 210223573.646 6                 170823826.370 6                 162558179.987 6                        37.500                          36.300                          39.400
C14                  23682826.383 7                  23682813.180 7                  23682818.941 8                     -2325.730 7                     -1889.706 7                     -1798.270 8                 123322783.613 7                 100209840.260 7                  95361002.702 8                        46.700                          46.900                          48.100
C16                  40171021.867 6                  40171011.723 5                  40171018.695 6                       952.785 6                       774.359 5                       736.885 6                 209181058.655 6                 169976707.792 5                 161752051.873 6                        38.800                          35.500                          38.300
C27  22488429.766 8  22488430.828 8  22488427.305 8  22488421.508 8  22488424.859 7                      1846.801 8      1829.820 8      1379.119 8      1487.041 8      1415.083 7                 118177495.398 8 117103175.089 8  88249442.621 8  95155884.936 8  90551583.698 7                        50.500          51.900          51.200          50.500          45.200
C28  21793539.730 8  21793541.250 8  21793537.559 8  21793531.820 8  21793535.555 7                      -882.895 8      -875.109 8      -659.301 8      -710.899 8      -676.498 7                 114525850.353 8 113484721.058 8  85522570.766 8  92215609.020 8  87753576.423 7                        52.000          51.800          52.300          52.000          47.200
C30  26681897.223 5  26681898.141 5  26681895.527 5  26681890.844 5                                      3063.256 5      3035.207 5      2287.491 5      2466.480 5                                 140214308.990 5 138939648.975 5 104705499.603 5 112899814.223 5                                        35.100          34.600          35.000          35.500
C32  26868603.117 5  26868604.641 5  26868604.738 6  26868597.156 6  26868602.008 5                      3501.582 5      3469.637 5      2614.810 6      2819.428 6      2683.012 5                 141195449.828 5 139911882.347 5 105438188.928 6 113689838.258 6 108188730.323 5                        35.500          35.800          40.600          38.200          32.300
C33  22491446.371 8  22491447.445 8  22491468.863 8  22491450.289 8  22491466.340 7                      -897.960 8      -890.102 8      -670.557 8      -723.028 8      -688.049 7                 118193468.959 8 117119004.566 8  88261493.777 8  95168848.489 8  90563957.189 7                        53.100          51.700          53.700          52.000          47.300
C36  27218345.664 5  27218346.469 6  27218349.676 6  27218342.738 6  27218347.633 5                      -755.047 5      -748.461 6      -563.844 6      -607.970 6      -578.559 5                 143033364.211 5 141733077.442 6 106810653.536 6 115169722.314 6 109597007.634 5                        35.300          36.900          40.500          39.800          32.600
C39  40041915.484 6  40041915.883 6  40041910.020 7  40041903.539 6  40041907.863 5                       610.779 6       605.109 6       456.103 7       491.817 6       468.023 5                 210421679.259 6 208508763.462 6 157133073.179 7 169430407.315 6 161232176.667 5                        41.100          39.200          42.800          40.100          35.200
C41  22727733.563 8  22727734.148 8  22727741.113 8  22727730.828 8  22727738.609 7                      2216.476 8      2196.098 8      1655.156 8      1784.689 8      1698.331 7                 119435096.642 8 118349333.114 8  89188594.540 8  96168533.970 8  91515239.374 7                        51.700          51.100          52.700          51.300          46.100
C42  26195780.840 6  26195782.195 6  26195789.191 6  26195781.668 6  26195786.867 5                     -3102.275 6     -3074.082 6     -2316.659 6     -2497.920 6     -2377.048 5                 137659807.594 6 136408372.823 6 102797959.043 6 110842991.144 6 105479618.804 5                        39.200          39.300          41.500          41.300          35.400
C43  25632042.586 6  25632044.016 6  25632042.117 7  25632034.738 6  25632039.469 5                     -2939.372 6     -2912.676 6     -2194.999 7     -2366.755 6     -2252.236 5                 134697488.814 6 133472989.534 6 100585891.374 7 108457779.976 6 103209739.875 5                        41.400          41.300          42.100          40.300          35.800
E02  27710262.484 6  27710263.781 6  27710256.438 7  27710261.016 6  27710263.758 7      1153.223 6       861.369 6       936.253 7       883.831 6       872.581 7 145618414.908 6 108741023.981 6 118196741.258 7 111577737.858 6 110159390.227 7        39.300          39.400          43.300          40.600          43.600
E04  26042006.797 7  26042007.957 7  26042000.109 7  26042005.797 7  26042008.055 8      2887.281 7      2156.173 7      2343.675 7      2212.415 7      2184.294 8 136851755.803 7 102194542.067 7 111080979.185 7 104860465.220 7 103527516.941 8        45.100          46.900          47.600          46.600          50.300
E10  23637270.391 8  23637272.027 8  23637264.910 9  23637269.512 8  23637271.844 9       386.176 8       288.495 8       313.576 9       296.013 8       292.259 9 124214749.527 8  92757809.922 8 100823664.682 9  95177565.255 8  93967693.381 9        52.600          53.100          57.300          53.400          56.800
E11  24417698.078 7  24417696.637 7  24417688.793 8  24417694.563 7  24417696.625 8      1470.035 7      1097.891 7      1193.365 8      1126.533 7      1112.211 8 128315884.796 7  95820298.816 7 104152465.817 8  98319940.874 7  97070146.641 8        46.300          45.700          50.800          46.100          48.600
E12  23871250.344 8  23871249.555 8  23871240.953 8  23871247.262 8  23871249.441 8      -729.141 8      -544.344 8      -591.672 8      -558.544 8      -551.444 8 125444294.468 8  93675946.600 8 101821639.904 8  96119656.397 8  94897807.300 8        48.500          49.900          53.600          50.800          53.900
E19  25962126.805 7  25962127.645 7  25962119.754 7  25962125.148 7  25962127.480 8       470.758 7       351.759 7       382.342 7       360.929 7       356.334 8 136431908.161 7 101880976.264 7 110740160.286 7 104538731.976 7 103209859.422 8        45.900          45.100          47.300          45.100          48.900
E24  27359424.781 7  27359426.570 7  27359419.094 7  27359423.723 7  27359426.102 7     -2874.984 7     -2146.736 7     -2333.397 7     -2202.705 7     -2174.742 7 143774750.697 7 107364262.740 7 116700253.516 7 110165056.040 7 108764668.191 7        42.500          43.700          46.000          44.100          47.800
E25  26307006.930 7  26307010.320 7  26307000.188 8  26307007.375 7  26307009.926 8     -1135.809 7      -848.027 7      -921.760 8      -870.148 7      -859.091 8 138244249.542 7 103234348.477 7 112211209.539 8 105927409.088 7 104580884.574 8        44.100          45.700          48.700          45.300          50.100
E33  27427027.977 7  27427029.832 7  27427022.297 7  27427026.598 6  27427029.469 7     -2153.297 7     -1607.857 7     -1747.676 7     -1649.805 6     -1628.823 7 144130253.759 7 107629887.291 7 116988920.901 7 110437593.238 6 109033746.050 7        42.300          42.500          44.500          41.300          46.300
G01  20519273.094 8                  20519280.641 6  20519280.320 8  20519276.469 9      1304.008 8                      1016.313 6      1016.307 8       973.961 9 107829496.920 8                  84023042.798 6  84023045.794 8  80522071.448 9        51.600                          40.400          50.700          54.300
G03  22151039.820 7                  22151046.773 6  22151047.000 7  22151044.750 8      2892.102 7                      2253.784 6      2253.783 7      2159.874 8 116404384.728 7                  90704857.747 6  90704865.740 7  86925487.057 8        45.100                          37.300          47.200          51.300
G08  21425987.617 8                  21425994.457 8  21425995.180 8  21425991.184 8     -2418.230 8                     -1884.157 8     -1884.173 8     -1805.646 8 112594269.186 8                  87735892.948 8  87735892.962 8  84080216.495 8        49.600                          53.400          50.200          53.700
G10  24663639.742 6                  24663646.445 5  24663645.551 6  24663641.941 7     -3303.492 6                     -2574.050 5     -2574.083 6     -2466.807 7 129608521.528 6                 100993831.824 5 100993777.827 6  96785728.060 7        39.200                          33.400          38.900          42.800
G14  23210141.891 6  23210140.082 7  23210146.344 4  23210146.598 7  23210147.945 7       205.953 6       206.236 7       160.715 4       160.703 7       154.022 7 121970121.939 6 121970130.940 7  95041670.850 4  95041676.845 7  91081605.236 7        40.600          44.100          29.500          43.900          47.200
G17  24661538.125 5                  24661542.199 3  24661542.148 6                      3263.980 5                      2543.662 3      2543.596 6                                                                 100984896.847 6                        34.300                          21.100          38.400
G21  20849583.266 8                  20849586.508 7                                      -245.461 8                      -191.127 7                                 109565320.436 8                  85375602.755 7                                        48.800                          43.600
G22  22394223.773 7                  22394228.789 5                                      1257.113 7                       979.830 5                                 117682596.284 7                  91700654.031 5                                        46.000                          33.700
G27  23904452.820 6                  23904458.988 6  23904458.730 6  23904456.055 7     -3597.992 6                     -2803.515 6     -2803.538 6     -2686.730 7 125618742.887 6                  97884799.053 6  97884798.069 6  93806256.605 7        39.300                          37.200          40.700          45.100
G32  22887255.336 7                  22887261.102 7  22887261.172 7  22887258.035 7      -654.410 7                      -509.629 7      -509.626 7      -488.410 7 120273339.375 7                  93719541.144 7  93719544.138 7  89814522.453 7        44.600                          45.500          45.200          47.500
I06  38482273.227 6        65.254 6 151012782.295 6        38.300
I09  37685531.734 6         8.973 6 147886184.555 6        39.900
R01  23546213.055 6  23546212.371 6  23546217.887 5  23546217.527 5      4546.840 6      4547.138 6      3536.638 5      3536.663 5 125868038.070 6 125868019.075 6  97897357.230 5  97897380.235 5        39.200          37.300          34.800          34.300
R06  23611502.438 5  23611500.094 5                                     -4121.289 5     -4121.081 5                                 125995536.973 5 125995505.948 5                                        33.000          31.600
R07  20046891.820 9  20046891.004 8  20046894.305 8  20046894.387 8     -1483.137 9     -1482.733 8     -1153.253 8     -1153.246 8 107312643.711 9 107312673.714 8  83465469.161 8  83465411.164 8        54.000          51.600          50.800          49.600
R08  20021567.141 8  20021566.398 8  20021568.383 8  20021568.262 8      2506.613 8      2506.972 8      1949.871 8      1949.856 8 107214652.972 8 107214667.981 8  83389217.249 8  83389242.264 8        51.800          49.800          50.600          49.500
R14  23167972.992 7  23167971.227 6  23167976.270 6  23167975.012 6      -847.422 7      -846.981 6      -658.753 6      -658.747 6 123498282.316 7 123498528.331 6  96054264.368 6  96054271.349 6        42.300          40.300          39.900          39.200
R15  24464104.484 6  24464102.922 6  24464106.535 6  24464106.457 5      2057.313 6      2057.596 6      1600.336 6      1600.377 5 130728777.507 6 130728759.514 6 101677928.846 6 101677935.815 5        41.400          39.400          36.900          35.800
R21  24091945.563 6  24091944.926 6  24091948.828 6  24091948.840 6     -3330.262 6     -3330.107 6     -2590.081 6     -2590.095 6 128920967.645 6 128920969.645 6 100271911.570 6 100271936.559 6        40.800          40.800          36.700          36.700
R22  20517720.094 8  20517719.105 8  20517720.508 8  20517721.078 8     -1844.023 8     -1843.793 8     -1434.061 8     -1434.040 8 109525022.653 8 109525030.658 8  85186142.733 8  85186163.736 8        53.000          51.400          49.400          49.600
R23  20053399.648 8  20053398.402 8                                      1877.559 8      1877.776 8                                 107272094.513 8 107272405.510 8                                        50.900          49.600
R24  23367946.211 7  23367945.184 7  23367948.059 7  23367948.434 6      3476.711 7      3476.795 7      2704.162 7      2704.158 6 124958900.362 7 124958901.358 7  97190261.765 7  97190271.765 6        44.100          43.400          42.300          41.500
S23  38478084.953 7  38478068.605 7         4.371 7         3.316 7 202204860.984 7 150994930.836 7        43.800          43.400
S26  40286641.313 5                       -78.813 5                 211707536.970 5                        33.000
S36  37806292.078 7  37806275.477 7         -.352 7         -.120 7 198674588.285 7 148360075.102 7        45.400          46.100
S48  67108863.984 6                       -32.520 6                 400806610.094 6                        40.500
> 2023 01 01 01 00 06.0000000  0 50
C05                  39902352.930 5                  39902342.137 6                  39902345.215 6                       -19.078 5                       -15.437 6                       -14.692 6                 207782012.512 5                 168839882.432 6                 160670214.811 6                        35.700                          37.100                          38.900
C06                  39999104.258 5                  39999090.742 6                  39999095.418 6                      1161.328 5                       943.741 6                       898.068 6                 208285838.773 5                 169249259.385 6                 161059791.908 6                        35.200                          37.500                          38.600
C09                  40370937.711 6                  40370924.305 6                  40370931.270 6                      1496.379 6                      1215.924 6                      1157.095 6                 210222077.274 6                 170822610.446 6                 162557022.893 6                        37.800                          36.300                          39.300
C14                  23683272.648 7                  23683259.820 7                  23683265.711 8                     -2326.125 7                     -1889.968 7                     -1798.515 8                 123325109.493 7                 100211730.228 7                  95362801.217 8                        46.100                          47.200                          48.000
C16                  40170838.367 6                  40170828.746 5                  40170835.828 6                       952.734 6                       774.249 5                       736.793 6                 209180105.829 6                 169975933.543 5                 161751315.080 6                        38.900                          35.200                          38.400
C27  22488078.414 8  22488079.609 8  22488075.949 8  22488070.102 8  22488073.473 7                      1846.607 8      1829.664 8      1378.945 8      1486.880 8      1414.936 7                 118175648.791 8 117101345.272 8  88248063.676 8  95154398.056 8  90550168.762 7                        50.300          51.500          51.200          50.100          45.200
C28  21793707.645 8  21793709.273 8  21793705.668 8  21793699.898 8  21793703.641 7                      -883.225 8      -875.402 8      -659.564 8      -711.175 8      -676.766 7                 114526733.578 8 113485596.262 8  85523230.330 8  92216320.195 8  87754253.190 7                        52.000          51.300          52.700          52.100          47.100
C30  26681314.414 5  26681314.852 5  26681312.578 5  26681308.016 5                                      3063.316 5      3035.387 5      2287.534 5      2466.563 5                                 140211245.674 5 138936613.504 5 104703212.069 5 112897347.660 5                                        35.300          35.200          35.200          35.400
C32  26867936.801 5  26867938.281 5  26867938.391 6  26867930.871 6  26867935.637 5                      3501.574 5      3469.625 5      2614.822 6      2819.453 6      2683.033 5                 141191948.254 5 139908412.598 5 105435574.105 6 113687018.805 6 108186047.290 5                        35.400          35.200          40.500          38.600          32.600
C33  22491617.418 8  22491618.398 8  22491639.816 8  22491621.281 8  22491637.340 7                      -898.431 8      -890.484 8      -670.897 8      -723.409 8      -688.400 7                 118194367.390 8 117119894.828 8  88262164.674 8  95169571.898 8  90564645.590 7                        53.000          51.600          53.800          52.200          47.300
C36  27218489.516 5  27218490.547 6  27218493.387 6  27218486.680 6  27218491.367 5                      -755.475 5      -748.746 6      -564.145 6      -608.290 6      -578.846 5                 143034119.686 5 141733826.024 6 106811217.681 6 115170330.604 6 109597586.479 5                        35.600          36.500          40.500          39.600          32.600
C39  40041799.367 6  40041799.578 6  40041793.750 7  40041787.336 6  40041791.648 5                       610.645 6       605.039 6       456.011 7       491.675 6       467.885 5                 210421068.615 6 208508158.388 6 157132617.169 7 169429915.641 6 161231708.781 5                        40.900          39.300          42.700          39.900          35.200
C41  22727311.789 8  22727312.508 8  22727319.418 8  22727309.145 8  22727316.918 7                      2216.091 8      2195.711 8      1654.883 8      1784.396 8      1698.054 7                 119432880.551 8 118347137.158 8  89186939.657 8  96166749.574 8  91513541.320 7                        51.700          50.900          52.700          51.300          46.100
C42  26196371.098 6  26196372.383 6  26196379.469 6  26196372.082 6  26196377.211 5                     -3102.410 6     -3074.316 6     -2316.723 6     -2498.033 6     -2377.162 5                 137662910.004 6 136411447.013 6 102800275.765 6 110845489.177 6 105481995.967 5                        39.100          39.200          41.200          41.400          35.500
C43  25632601.734 6  25632603.313 6  25632601.520 7  25632594.113 6  25632598.777 5                     -2939.487 6     -2912.875 6     -2195.063 7     -2366.853 6     -2252.329 5                 134700428.300 6 133475902.295 6 100588086.437 7 108460146.828 6 103211992.204 5                        41.100          41.600          42.000          40.600          35.800
E02  27710043.781 6  27710044.520 6  27710037.063 7  27710041.672 6  27710044.340 7      1152.836 6       861.069 6       935.948 7       883.555 6       872.334 7 145617261.838 6 108740162.912 6 118195805.310 7 111576854.303 6 110158517.893 7        39.300          39.300          43.300          40.200          44.000
E04  26041457.344 7  26041458.582 7  26041450.797 7  26041456.238 7  26041458.637 8      2887.148 7      2156.083 7      2343.575 7      2212.334 7      2184.215 8 136848868.516 7 102192385.983 7 111078635.610 7 104858252.886 7 103525332.726 8        45.700          46.800          47.700          46.200          50.200
E10  23637196.898 8  23637198.586 8  23637191.438 9  23637195.973 8  23637198.344 9       386.074 8       288.409 8       313.481 9       295.927 8       292.169 9 124214363.322 8  92757521.513 8 100823351.201 9  95177269.328 8  93967401.212 9        52.500          52.900          57.300          53.500          56.600
E11  24417418.664 7  24417416.875 7  24417408.883 8  24417414.699 7  24417416.852 8      1470.047 7      1097.864 7      1193.318 8      1126.507 7      1112.179 8 128314414.629 7  95819200.952 7 104151272.499 8  98318814.367 7  97069034.463 8        46.200          45.600          50.800          46.100          48.500
E12  23871389.047 8  23871388.309 8  23871379.785 8  23871385.969 8  23871388.172 9      -729.238 8      -544.430 8      -591.773 8      -558.634 8      -551.521 9 125445023.528 8  93676491.030 8 101822231.676 8  96120215.031 8  94898358.821 9        48.400          50.000          53.600          50.700          54.000
E19  25962037.281 7  25962038.105 7  25962030.145 7  25962035.582 7  25962037.926 8       470.293 7       351.433 7       381.996 7       360.617 7       356.030 8 136431437.543 7 101880624.831 7 110739778.290 7 104538371.359 7 103209503.392 8        46.400          45.200          47.400          45.100          48.900
E24  27359971.078 7  27359973.703 7  27359966.262 7  27359970.668 7  27359973.145 7     -2874.672 7     -2146.729 7     -2333.386 7     -2202.750 7     -2174.736 7 143777625.431 7 107366409.470 7 116702586.903 7 110167258.790 7 108766842.927 7        42.400          43.800          46.000          44.200          47.300
E25  26307223.094 7  26307226.578 7  26307216.371 8  26307223.563 7  26307226.098 8     -1136.184 7      -848.325 7      -922.098 8      -870.446 7      -859.390 8 138245385.558 7 103235196.802 7 112212131.637 8 105928279.535 7 104581743.964 8        44.200          45.800          48.700          45.500          50.100
E33  27427437.141 6  27427439.566 7  27427432.246 7  27427436.238 6  27427439.219 7     -2153.137 6     -1607.918 7     -1747.682 7     -1649.821 6     -1628.878 7 144132406.904 6 107631495.209 7 116990668.584 7 110439243.059 6 109035374.928 7        41.800          42.700          44.500          41.400          46.100
G01  20519025.063 8                  20519032.492 6  20519032.359 8  20519028.355 9      1303.789 8                      1016.090 6      1016.097 8       973.752 9 107828192.931 8                  84022026.707 6  84022029.697 8  80521097.696 9        51.500                          40.500          51.000          54.500
G03  22150489.711 7                  22150496.402 6  22150496.922 7  22150494.434 8      2891.754 7                      2253.534 6      2253.524 7      2159.637 8 116401492.692 7                  90702604.213 6  90702612.216 7  86923327.420 8        44.800                          37.000          47.500          51.300
G08  21426448.180 8                  21426454.691 8  21426455.680 8  21426451.426 9     -2418.563 8                     -1884.443 8     -1884.434 8     -1805.939 9 112596687.556 8                  87737777.391 8  87737777.396 8  84082022.434 9        49.800                          53.200          50.300          54.000
G10  24664268.164 6                  24664274.863 5  24664274.309 6  24664270.512 7     -3303.563 6                     -2574.112 5     -2574.090 6     -2466.841 7 129611824.971 6                 100996405.937 5 100996351.917 6  96788194.901 7        38.900                          33.200          39.500          42.900
G14  23210102.766 6  23210101.082 7  23210107.043 4  23210107.242 7  23210108.770 7       205.297 6       205.670 7       160.248 4       160.248 7       153.573 7 121969916.278 6 121969925.270 7  95041510.602 4  95041516.597 7  91081451.663 7        40.400          44.200          28.700          44.300          47.300
G17  24660916.781 5                  24660920.895 3  24660920.398 6                      3264.371 5                      2543.650 3      2543.614 6                                                                 100982353.233 6                        34.600                          20.600          38.300
G21  20849629.922 8                  20849633.348 7                                      -245.648 8                      -191.275 7                                 109565565.907 8                  85375794.031 7                                        48.800                          43.500
G22  22393984.750 7                  22393989.520 5                                      1256.668 7                       979.463 5                                 117681339.308 7                  91699674.568 5                                        46.000                          34.100
G27  23905137.398 6                  23905143.566 6  23905143.234 6  23905140.754 7     -3598.098 6                     -2803.612 6     -2803.602 6     -2686.788 7 125622340.860 6                  97887602.665 6  97887601.670 6  93808943.392 7        39.500                          37.600          41.100          44.700
G32  22887379.836 7                  22887385.742 7  22887385.855 7  22887382.543 7      -654.938 7                      -510.073 7      -510.076 7      -488.804 7 120273993.966 7                  93720051.217 7  93720054.214 7  89815011.257 7        44.600                          45.300          45.400          47.400
I06  38482256.945 6        65.223 6 151012716.993 6        38.800
I09  37685530.133 6         8.938 6 147886175.600 6        40.100
R01  23545362.773 6  23545361.750 6  23545366.551 5  23545366.988 5      4546.996 6      4547.099 6      3536.644 5      3536.625 5 125863490.974 6 125863471.977 6  97893820.586 5  97893843.610 5        39.900          37.600          34.500          33.600
R06  23612273.984 5  23612273.395 5                                     -4121.461 5     -4121.329 5                                 125999658.230 5 125999627.277 5                                        32.900          31.900
R07  20047168.703 8  20047168.066 8  20047172.090 8  20047171.465 8     -1483.891 8     -1483.512 8     -1153.834 8     -1153.841 8 107314127.216 8 107314157.226 8  83466622.995 8  83466565.005 8        53.900          52.000          50.800          49.800
R08  20021098.648 8  20021098.305 8  20021100.199 8  20021100.238 8      2505.953 8      2506.294 8      1949.334 8      1949.334 8 107212146.678 8 107212161.687 8  83387267.915 8  83387292.930 8        52.000          50.000          50.500          49.800
R14  23168132.375 7  23168130.215 6  23168135.184 6  23168134.039 6      -848.094 7      -847.721 6      -659.337 6      -659.353 6 123499130.049 7 123499376.052 6  96054923.705 6  96054930.702 6        42.000          39.900          40.000          39.400
R15  24463718.781 6  24463718.434 6  24463721.191 6  24463721.445 6      2056.738 6      2056.997 6      1599.909 6      1599.884 6 130726720.514 6 130726702.517 6 101676328.938 6 101676335.931 6        40.900          39.500          36.800          36.500
R21  24092567.633 6  24092566.922 6  24092570.164 6  24092571.020 6     -3330.375 6     -3330.242 6     -2590.166 6     -2590.184 6 128924297.881 6 128924299.887 6 100274501.736 6 100274526.743 6        40.900          40.300          36.800          36.500
R22  20518065.195 8  20518064.555 8  20518065.633 8  20518066.488 8     -1844.402 8     -1844.164 8     -1434.344 8     -1434.337 8 109526866.810 8 109526874.821 8  85187577.077 8  85187598.073 8        52.900          51.300          49.300          49.500
R23  20053048.055 8  20053047.238 8                                      1877.285 8      1877.489 8                                 107270217.010 8 107270528.021 8                                        51.000          49.500
R24  23367295.219 7  23367295.031 7  23367298.434 7  23367298.277 6      3476.789 7      3476.842 7      2704.223 7      2704.219 6 124955423.506 7 124955424.516 7  97187557.541 7  97187567.545 6        44.400          43.100          42.500          41.400
S23  38478084.188 7  38478067.789 7         4.422 7         3.343 7 202204856.504 7 150994927.493 7        43.900          43.600
S26  40286656.391 5                       -78.852 5                 211707615.669 5                        33.600
S36  37806291.906 7  37806275.547 7         -.273 7         -.150 7 198674588.494 7 148360075.253 7        45.300          45.700
S48  67108863.984 6                       -32.457 6                 400806642.460 6                        39.800
> 2023 01 01 01 00 07.0000000  0 50
C05                  39902356.453 5                  39902345.848 6                  39902348.785 6                       -19.121 5                       -15.444 6                       -14.699 6                 207782031.525 5                 168839897.876 6                 160670229.510 6                        35.600                          37.000                          39.200
C06                  39998881.594 5                  39998867.762 6                  39998872.438 6                      1160.871 5                       943.490 6                       897.837 6                 208284677.667 5                 169248315.895 6                 161058894.071 6                        35.100                          36.800                          38.800
C09                  40370650.430 6                  40370636.988 6                  40370644.012 6                      1495.992 6                      1215.792 6                      1156.958 6                 210220581.072 6                 170821394.654 6                 162555865.935 6                        37.700                          36.500                          39.000
C14                  23683719.641 7                  23683706.539 7                  23683712.430 7                     -2326.551 7                     -1890.299 7                     -1798.834 7                 123327435.779 7                 100213620.526 7                  95364600.051 7                        46.000                          47.300                          47.800
C16                  40170655.578 6                  40170645.699 5                  40170652.863 6                       952.449 6                       774.084 5                       736.624 6                 209179153.207 6                 169975159.459 5                 161750578.456 6                        38.700                          35.700                          38.100
C27  22487727.035 8  22487728.242 8  22487724.570 8  22487718.750 8  22487722.121 7                      1846.288 8      1829.324 8      1378.731 8      1486.624 8      1414.690 7                 118173802.503 8 117099515.766 8  88246684.945 8  95152911.432 8  90548754.072 7                        50.400          51.400          51.200          50.400          45.400
C28  21793875.891 8  21793877.484 8  21793873.809 8  21793868.070 8  21793871.789 7                      -883.665 8      -875.863 8      -659.865 8      -711.513 8      -677.084 7                 114527617.243 8 113486471.883 8  85523890.195 8  92217031.708 8  87754930.274 7                        52.000          51.300          52.700          52.200          47.100
C30  26680731.535 5  26680732.430 5  26680729.691 5  26680724.957 5                                      3063.283 5      3035.520 5      2287.507 5      2466.565 5                                 140208182.391 5 138933578.053 5 104700924.562 5 112894881.095 5                                        35.200          35.000          34.700          34.600
C32  26867270.215 5  26867271.656 5  26867272.012 6  26867264.602 6  26867269.207 5                      3501.511 5      3469.645 5      2614.729 6      2819.402 6      2682.975 5                 141188446.743 5 139904942.912 5 105432959.376 6 113684199.404 6 108183364.315 5                        35.200          35.100          40.400          38.600          32.300
C33  22491788.492 8  22491789.313 8  22491810.852 8  22491792.398 8  22491808.418 7                      -898.997 8      -891.121 8      -671.341 8      -723.870 8      -688.851 7                 118195266.387 8 117120785.654 8  88262836.015 8  95170295.768 8  90565334.440 7                        53.000          51.500          53.700          52.400          47.300
C36  27218633.371 5  27218634.148 6  27218637.180 6  27218630.492 6  27218635.203 5                      -755.972 5      -749.266 6      -564.521 6      -608.691 6      -579.251 5                 143034875.658 5 141734575.114 6 106811782.202 6 115170939.295 6 109598165.731 5                        35.400          36.000          40.400          39.500          32.600
C39  40041682.926 6  40041683.469 6  40041677.602 7  40041671.230 6  40041675.465 5                       610.385 6       604.652 6       455.793 7       491.495 6       467.707 5                 210420458.230 6 208507553.534 6 157132161.376 7 169429424.145 6 161231241.074 5                        40.900          38.700          42.200          39.800          35.300
C41  22726890.066 8  22726890.750 8  22726897.770 8  22726887.547 8  22726895.266 7                      2215.627 8      2195.227 8      1654.512 8      1784.006 8      1697.683 7                 119430664.923 8 118344941.679 8  89185285.144 8  96164965.569 8  91511843.637 7                        51.700          51.000          52.800          51.200          46.100
C42  26196961.566 6  26196962.586 6  26196969.832 6  26196962.523 6  26196967.602 5                     -3102.570 6     -3074.488 6     -2316.883 6     -2498.194 6     -2377.322 5                 137666012.574 6 136414521.416 6 102802592.648 6 110847987.371 6 105484373.289 5                        39.200          39.500          41.200          41.100          35.400
C43  25633161.215 6  25633162.688 6  25633160.867 7  25633153.637 6  25633158.258 5                     -2939.679 6     -2913.141 6     -2195.229 7     -2367.034 6     -2252.502 5                 134703367.980 6 133478815.273 6 100590281.667 7 108462513.862 6 103214244.706 5                        41.100          41.300          42.200          40.500          35.800
E02  27709823.898 6  27709825.238 6  27709817.590 7  27709822.402 6  27709825.000 7      1152.359 6       860.685 6       935.571 7       883.141 6       871.906 7 145616109.218 6 108739302.228 6 118194869.739 7 111575971.162 6 110157645.987 7        39.300          39.000          43.400          40.400          43.800
E04  26040907.992 7  26040909.117 7  26040901.422 7  26040907.031 7  26040909.227 8      2886.996 7      2155.936 7      2343.404 7      2212.173 7      2184.053 8 136845981.446 7 102190230.047 7 111076292.206 7 104856040.713 7 103523148.673 8        45.700          46.800          47.700          46.500          50.500
E10  23637123.359 8  23637125.152 8  23637118.004 9  23637122.488 8  23637124.887 9       385.805 8       288.232 8       313.308 9       295.766 8       291.996 9 124213977.324 8  92757233.281 8 100823037.893 9  95176973.562 8  93967109.216 9        52.200          53.000          57.300          53.500          56.600
E11  24417138.664 7  24417137.156 7  24417129.219 8  24417135.012 7  24417137.121 8      1469.922 7      1097.720 7      1193.181 8      1126.348 7      1112.041 8 128312944.627 7  95818103.231 7 104150079.318 8  98317688.019 7  97067922.422 8        46.400          45.900          50.800          46.100          48.500
E12  23871527.836 8  23871527.066 8  23871518.453 8  23871524.660 8  23871526.945 8      -729.453 8      -544.574 8      -591.941 8      -558.788 8      -551.681 8 125445752.803 8  93677035.604 8 101822823.618 8  96120773.819 8  94898910.502 8        48.600          49.700          53.600          51.000          53.800
E19  25961947.602 7  25961948.590 7  25961940.465 7  25961946.090 7  25961948.480 8       469.813 7       351.060 7       381.581 7       360.208 7       355.631 8 136430967.431 7 101880273.772 7 110739396.710 7 104538011.151 7 103209147.762 8        46.100          45.100          47.300          45.100          49.200
E24  27360518.555 7  27360520.633 7  27360513.223 7  27360517.645 7  27360520.227 7     -2875.063 7     -2146.868 7     -2333.542 7     -2202.883 7     -2174.868 7 143780500.363 7 107368556.338 7 116704920.445 7 110169461.673 7 108769017.795 7        42.400          43.600          46.000          43.700          47.000
E25  26307439.727 7  26307442.727 7  26307432.609 8  26307439.742 7  26307442.355 8     -1136.754 7      -848.667 7      -922.461 8      -870.826 7      -859.746 8 138246522.037 7 103236045.470 7 112213054.098 8 105929150.360 7 104582603.709 8        44.200          45.900          48.600          45.500          50.100
E33  27427847.227 7  27427849.305 7  27427842.066 7  27427846.051 6  27427848.965 7     -2153.438 7     -1607.939 7     -1747.807 7     -1649.908 6     -1628.934 7 144134560.196 7 107633103.148 7 116992416.391 7 110440892.968 6 109037003.862 7        42.100          42.400          44.500          41.600          46.100
G01  20518776.930 8                  20518784.234 6  20518784.301 8  20518780.285 9      1303.438 8                      1015.794 6      1015.779 8       973.464 9 107826889.333 8                  84021010.914 6  84021013.918 8  80520124.232 9        51.400                          40.900          51.200          54.800
G03  22149939.516 7                  22149946.051 6  22149946.777 7  22149944.129 8      2891.457 7                      2253.218 6      2253.214 7      2159.323 8 116398601.061 7                  90700350.995 6  90700359.002 7  86921168.096 8        44.600                          36.900          47.500          51.300
G08  21426908.102 8                  21426914.922 8  21426915.609 8  21426911.766 8     -2419.168 8                     -1884.840 8     -1884.833 8     -1806.302 8 112599106.436 8                  87739662.231 8  87739662.229 8  84083828.736 8        50.000                          53.300          50.500          53.900
G10  24664896.977 6                  24664903.465 5  24664902.730 6  24664899.105 7     -3303.707 6                     -2574.157 5     -2574.170 6     -2466.883 7 129615128.477 6                 100998980.094 5 100998926.087 6  96790661.784 7        38.700                          33.000          38.400          42.500
G14  23210063.758 6  23210062.133 7  23210067.934 4  23210068.465 7  23210069.805 7       204.656 6       204.960 7       159.711 4       159.715 7       153.056 7 121969711.313 6 121969720.310 7  95041350.891 4  95041356.882 7  91081298.607 7        40.200          44.100          29.400          44.000          47.700
G17  24660295.094 5                  24660299.746 3  24660299.625 6                      3264.309 5                      2543.638 3      2543.504 6                 129590653.89415                 100979804.69913 100979809.729 6                        34.500                          20.600          38.100
G21  20849676.734 8                  20849680.027 7                                      -245.977 8                      -191.513 7                                 109565811.678 8                  85375985.543 7                                        48.700                          43.800
G22  22393745.578 7                  22393750.418 5                                      1256.109 7                       979.014 5                                 117680082.904 7                  91698695.553 5                                        45.900                          34.000
G27  23905822.258 6                  23905828.176 6  23905828.000 6  23905825.434 7     -3598.348 6                     -2803.767 6     -2803.778 6     -2686.957 7 125625939.023 6                  97890406.432 6  97890405.449 6  93811630.349 7        39.600                          37.100          41.300          44.700
G32  22887504.516 7                  22887510.387 7  22887510.469 7  22887507.227 7      -655.664 7                      -510.589 7      -510.588 7      -489.318 7 120274649.221 7                  93720561.806 7  93720564.802 7  89815500.575 7        44.600                          45.500          45.200          47.200
I06  38482239.414 6        65.211 6 151012651.688 6        38.300
I09  37685527.891 6         8.734 6 147886166.707 6        39.500
R01  23544511.313 6  23544510.805 6  23544515.398 5  23544516.504 5      4546.738 6      4546.952 6      3536.497 5      3536.521 5 125858944.018 6 125858925.025 6  97890284.089 5  97890307.089 5        39.800          38.000          34.300          33.800
R06  23613046.906 5  23613045.605 5                                     -4121.793 5     -4121.546 5                                 126003779.773 5 126003748.823 5                                        33.200          32.000
R07  20047445.898 9  20047445.191 8  20047449.262 8  20047448.723 8     -1484.758 9     -1484.367 8     -1154.511 8     -1154.497 8 107315611.575 9 107315641.593 8  83467777.507 8  83467719.502 8        54.000          52.000          50.500          49.900
R08  20020630.758 8  20020630.309 8  20020632.102 8  20020632.395 8      2505.137 8      2505.500 8      1948.733 8      1948.733 8 107209641.171 8 107209656.187 8  83385319.182 8  83385344.196 8        51.700          49.900          50.400          49.500
R14  23168290.664 6  23168289.176 6  23168293.313 6  23168293.148 6      -848.906 6      -848.583 6      -660.028 6      -660.004 6 123499978.620 6 123500224.635 6  96055583.733 6  96055590.706 6        41.500          39.700          39.800          39.600
R15  24463334.109 6  24463333.684 6  24463336.359 6  24463336.598 6      2055.969 6      2056.304 6      1599.326 6      1599.325 6 130724664.223 6 130724646.213 6 101674729.612 6 101674736.606 6        40.500          39.500          36.600          36.000
R21  24093189.891 6  24093189.332 6  24093192.238 6  24093193.438 6     -3330.660 6     -3330.457 6     -2590.335 6     -2590.354 6 128927628.334 6 128927630.344 6 100277092.071 6 100277117.097 6        40.300          40.100          36.900          36.400
R22  20518410.742 8  20518410.203 8  20518411.535 8  20518412.203 8     -1844.875 8     -1844.603 8     -1434.723 8     -1434.715 8 109528711.426 8 109528719.424 8  85189011.800 8  85189032.788 8        52.700          51.400          49.600          49.600
R23  20052697.406 8  20052696.426 8                                      1876.902 8      1877.104 8                                 107268339.898 8 107268650.917 8                                        51.300          49.200
R24  23366645.297 7  23366645.137 7  23366647.836 7  23366648.082 6      3476.668 7      3476.807 7      2704.187 7      2704.182 6 124951946.703 7 124951947.708 7  97184853.354 7  97184863.363 6        44.600          43.400          43.100          41.500
S23  38478083.375 7  38478066.938 7         4.383 7         3.310 7 202204852.073 7 150994924.184 7        44.100          43.100
S26  40286677.250 5                       -78.984 5                 211707694.433 5                        33.400
S36  37806291.703 7  37806275.598 7         -.328 7         -.180 7 198674588.705 7 148360075.432 7        45.700          46.000
S48  67108863.984 6                       -32.441 6                 400806674.850 6                        39.500
> 2023 01 01 01 00 08.0000000  0 50
C05                  39902360.297 5                  39902349.465 6                  39902352.609 6                       -19.188 5                       -15.487 6                       -14.732 6                 207782050.585 5                 168839913.363 6                 160670244.242 6                        35.400                          37.100                          39.200
C06                  39998658.391 5                  39998644.867 6                  39998649.426 6                      1160.848 5                       943.355 6                       897.720 6                 208283516.726 5                 169247372.540 6                 161057996.352 6                        35.300                          36.800                          38.700
C09                  40370363.047 6                  40370349.750 6                  40370356.418 6                      1496.012 6                      1215.607 6                      1156.786 6                 210219085.082 6                 170820179.047 6                 162554709.149 6                        37.700                          36.600                          39.600
C14                  23684166.453 7                  23684153.297 7                  23684159.293 7                     -2326.859 7                     -1890.602 7                     -1799.119 7                 123329762.439 7                 100215511.129 7                  95366399.170 7                        45.500                          47.700                          47.800
C16                  40170472.773 6                  40170462.945 5                  40170469.996 6                       952.305 6                       773.864 5                       736.413 6                 209178200.858 6                 169974385.595 5                 161749842.043 6                        38.800                          35.400                          37.900
C27  22487375.758 8  22487376.906 8  22487373.262 8  22487367.387 8  22487370.871 7                      1845.989 8      1829.035 8      1378.490 8      1486.373 8      1414.454 7                 118171956.514 8 117097686.559 8  88245306.455 8  95151425.059 8  90547339.618 7                        50.300          51.800          51.100          50.400          45.400
C28  21794044.098 8  21794045.750 8  21794042.063 8  21794036.273 8  21794040.031 7                      -884.081 8      -876.246 8      -660.197 8      -711.862 8      -677.414 7                 114528501.324 8 113487347.933 8  85524550.392 8  92217743.570 8  87755607.688 7                        52.200          51.500          52.300          52.300          47.100
C30  26680148.402 5  26680149.375 5  26680146.840 5  26680142.035 5                                      3063.295 5      3035.402 5      2287.498 5      2466.526 5                                 140205119.095 5 138930542.626 5 104698637.064 5 112892414.569 5                                        35.200          34.200          34.500          34.600
C32  26866603.758 5  26866605.547 5  26866605.660 6  26866598.266 6  26866602.961 5                      3501.471 5      3469.367 5      2614.727 6      2819.326 6      2682.907 5                 141184945.272 5 139901473.317 5 105430344.649 6 113681380.078 6 108180681.408 5                        35.500          34.900          40.600          38.400          32.300
C33  22491959.688 8  22491960.586 8  22491982.047 8  22491963.523 8  22491979.574 7                      -899.555 8      -891.605 8      -671.745 8      -724.325 8      -689.270 7                 118196165.942 8 117121677.037 8  88263507.759 8  95171020.093 8  90566023.710 7                        53.200          51.300          53.900          52.800          47.300
C36  27218777.328 5  27218778.258 6  27218781.195 6  27218774.355 6  27218779.016 5                      -756.417 5      -749.867 6      -564.917 6      -609.116 6      -579.641 5                 143035632.075 5 141735324.714 6 106812347.119 6 115171548.411 6 109598745.372 5                        34.700          36.400          40.700          39.800          32.100
C39  40041566.832 6  40041567.461 6  40041561.570 7  40041555.094 6  40041559.383 5                       610.129 6       604.332 6       455.624 7       491.267 6       467.492 5                 210419848.101 6 208506948.955 6 157131705.752 7 169428932.879 6 161230773.582 5                        40.800          38.700          42.300          40.000          35.000
C41  22726468.621 8  22726469.336 8  22726476.223 8  22726465.934 8  22726473.766 7                      2215.161 8      2194.824 8      1654.181 8      1783.637 8      1697.332 7                 119428449.762 8 118342746.660 8  89183630.963 8  96163181.931 8  91510146.305 7                        51.800          51.600          52.700          50.900          46.100
C42  26197552.043 6  26197553.109 6  26197560.246 6  26197552.902 6  26197557.988 5                     -3102.838 6     -3074.672 6     -2317.027 6     -2498.354 6     -2377.468 5                 137669115.411 6 136417596.007 6 102804909.675 6 110850485.725 6 105486750.756 5                        39.000          39.000          41.300          40.800          35.600
C43  25633720.426 6  25633722.336 6  25633720.258 6  25633713.066 6  25633717.680 5                     -2939.849 6     -2913.262 6     -2195.339 6     -2367.156 6     -2252.611 5                 134706307.828 6 133481728.397 6 100592477.005 6 108464881.018 6 103216497.317 5                        41.200          41.700          41.600          40.400          35.900
E02  27709604.523 6  27709605.922 6  27709598.516 7  27709603.285 6  27709605.754 7      1151.844 6       860.377 6       935.137 7       882.803 6       871.589 7 145614957.121 6 108738441.851 6 118193934.602 7 111575088.360 6 110156774.398 7        39.300          38.900          43.400          40.600          44.000
E04  26040358.695 7  26040359.766 7  26040352.207 7  26040357.586 7  26040359.887 8      2886.844 7      2155.766 7      2343.228 7      2212.010 7      2183.884 8 136843094.581 7 102188074.281 7 111073948.977 7 104853828.702 7 103520964.789 8        45.700          46.800          47.600          46.200          50.500
E10  23637050.078 8  23637051.738 8  23637044.680 9  23637049.180 8  23637051.484 9       385.711 8       288.081 8       313.127 9       295.600 8       291.836 9 124213591.554 8  92756945.200 8 100822724.766 9  95176677.962 8  93966817.380 9        52.100          53.200          57.300          53.500          56.800
E11  24416858.906 7  24416857.469 7  24416849.465 8  24416855.457 7  24416857.426 8      1469.773 7      1097.596 7      1193.053 8      1126.247 7      1111.923 8 128311474.786 7  95817005.636 7 104148886.265 8  98316561.772 7  97066810.499 8        46.300          45.600          50.800          46.000          48.500
E12  23871666.742 8  23871665.875 8  23871657.324 8  23871663.500 8  23871665.766 8      -729.645 8      -544.757 8      -592.120 8      -558.964 8      -551.866 8 125446482.299 8  93677580.361 8 101823415.738 8  96121332.783 8  94899462.368 8        48.800          49.700          53.600          51.000          53.800
E19  25961858.188 7  25961859.156 7  25961851.395 7  25961856.922 7  25961859.105 8       469.391 7       350.656 7       381.156 7       359.788 7       355.226 8 136430497.851 7 101879923.115 7 110739015.554 7 104537651.362 7 103208792.536 8        46.100          44.700          47.400          45.300          49.200
E24  27361065.531 7  27361067.781 7  27361060.285 7  27361064.699 7  27361067.320 7     -2875.059 7     -2146.914 7     -2333.611 7     -2202.928 7     -2174.922 7 143783375.372 7 107370703.252 7 116707254.056 7 110171664.602 7 108771192.717 7        42.000          43.200          46.000          43.400          47.300
E25  26307655.445 7  26307658.996 7  26307649.063 8  26307656.160 7  26307658.711 8     -1137.113 7      -849.039 7      -922.865 8      -871.169 7      -860.105 8 138247658.997 7 103236894.509 7 112213976.963 8 105930021.529 7 104583463.814 8        44.000          45.800          48.600          45.300          49.800
E33  27428257.031 7  27428259.074 7  27428251.789 7  27428255.863 6  27428258.742 7     -2153.371 7     -1608.044 7     -1747.884 7     -1649.999 6     -1629.011 7 144136713.587 7 107634711.192 7 116994164.274 7 110442542.967 6 109038632.872 7        42.000          42.600          44.500          41.500          46.200
G01  20518528.883 8                  20518536.219 6  20518536.102 8  20518532.297 9      1303.098 8                      1015.495 6      1015.502 8       973.179 9 107825586.118 8                  84019995.419 6  84019998.416 8  80519151.054 9        51.300                          41.000          51.200          54.800
G03  22149388.984 7                  22149395.809 6  22149396.141 7  22149393.992 8      2891.074 7                      2252.886 6      2252.894 7      2159.018 8 116395709.857 7                  90698098.109 6  90698106.108 7  86919009.078 8        45.000                          37.100          47.600          51.200
G08  21427368.648 8                  21427375.305 8  21427376.043 8  21427372.082 9     -2419.512 8                     -1885.202 8     -1885.217 8     -1806.661 9 112601525.790 8                  87741547.433 8  87741547.446 8  84085635.397 9        50.000                          53.200          50.200          54.000
G10  24665525.055 6                  24665532.148 5  24665531.594 6  24665527.887 7     -3303.723 6                     -2574.249 5     -2574.233 6     -2467.007 7 129618432.098 6                 101001554.343 5 101001500.320 6  96793128.791 7        38.700                          32.800          39.800          42.600
G14  23210024.789 6  23210022.977 7  23210029.121 4  23210029.145 7  23210030.977 7       204.063 6       204.284 7       159.206 4       159.194 7       152.558 7 121969507.012 6 121969516.026 7  95041191.685 4  95041197.688 7  91081146.049 7        40.300          44.100          29.400          43.700          47.600
G17  24659674.180 5                  24659678.602 3  24659679.027 6                      3264.293 5                      2543.481 3      2543.438 6                 129587389.780 5                 100977261.218 3 100977266.291 6                        34.600                          21.100          38.100
G21  20849723.406 8                  20849726.793 7                                      -246.133 8                      -191.708 7                                 109566057.706 8                  85376177.251 7                                        48.900                          43.500
G22  22393506.641 7                  22393511.438 5                                      1255.594 7                       978.556 5                                 117678827.081 7                  91697716.997 5                                        46.100                          33.600
G27  23906506.555 6                  23906513.121 6  23906512.996 6  23906510.230 7     -3598.430 6                     -2803.948 6     -2803.932 6     -2687.100 7 125629537.419 6                  97893210.380 6  97893209.381 6  93814317.450 7        39.700                          37.300          41.300          44.900
G32  22887629.609 7                  22887635.195 7  22887635.539 7  22887632.125 7      -656.258 7                      -511.114 7      -511.112 7      -489.814 7 120275305.150 7                  93721072.920 7  93721075.914 7  89815990.389 7        44.700                          45.300          45.400          47.400
I06  38482222.570 6        65.121 6 151012586.416 6        38.600
I09  37685525.328 6         8.848 6 147886157.897 6        39.800
R01  23543660.797 6  23543660.430 6  23543665.145 5  23543665.863 5      4546.875 6      4546.820 6      3536.415 5      3536.415 5 125854397.202 6 125854378.205 6  97886747.673 5  97886770.673 5        39.500          38.500          34.800          33.100
R06  23613818.953 5  23613817.434 5                                     -4121.988 5     -4121.809 5                                 126007901.634 5 126007870.632 5                                        32.900          31.900
R07  20047723.359 9  20047722.918 8  20047726.293 8  20047726.184 8     -1485.570 9     -1485.239 8     -1155.181 8     -1155.189 8 107317096.815 9 107317126.832 8  83468932.688 8  83468874.691 8        54.300          52.100          50.100          49.900
R08  20020163.742 8  20020162.672 8  20020164.785 8  20020164.598 8      2504.430 8      2504.745 8      1948.127 8      1948.128 8 107207136.433 8 107207151.442 8  83383371.055 8  83383396.069 8        51.800          49.800          50.700          49.200
R14  23168450.703 6  23168448.137 6  23168452.207 6  23168452.570 6      -849.734 6      -849.396 6      -660.623 6      -660.650 6 123500828.029 6 123501074.032 6  96056244.356 6  96056251.356 6        41.400          39.700          39.500          39.100
R15  24462949.469 6  24462948.551 6  24462951.664 6  24462951.938 6      2055.180 6      2055.603 6      1598.784 6      1598.784 6 130722608.636 6 130722590.611 6 101673130.828 6 101673137.822 6        40.400          39.400          36.100          36.000
R21  24093811.852 6  24093811.680 6  24093814.871 6  24093815.949 6     -3330.680 6     -3330.657 6     -2590.545 6     -2590.496 6 128930958.973 6 128930961.001 6 100279682.617 6 100279707.592 6        40.900          40.200          37.000          36.400
R22  20518756.641 8  20518755.867 8  20518757.285 8  20518757.941 8     -1845.211 8     -1845.064 8     -1435.030 8     -1435.052 8 109530556.483 8 109530564.488 8  85190446.830 8  85190467.840 8        52.500          51.700          49.600          49.800
R23  20052346.266 8  20052345.691 8                                      1876.621 8      1876.730 8                                 107266463.168 8 107266774.187 8                                        51.100          49.300
R24  23365994.953 7  23365994.867 7  23365997.836 7  23365997.965 6      3476.762 7      3476.768 7      2704.144 7      2704.148 6 124948469.938 7 124948470.940 7  97182149.210 7  97182159.215 6        44.600          43.600          42.500          41.600
S23  38478082.281 7  38478066.117 7         4.316 7         3.284 7 202204847.694 7 150994920.899 7        43.900          43.200
S26  40286681.422 5                       -78.902 5                 211707773.171 5                        32.600
S36  37806291.672 7  37806275.691 7         -.391 7         -.162 7 198674589.020 7 148360075.594 7        45.300          45.800
S48  67108863.984 6                       -32.555 6                 400806707.326 6                        39.000
> 2023 01 01 01 00 09.0000000  0 50
C05                  39902363.969 5                  39902353.098 6                  39902356.094 6                       -19.016 5                       -15.418 6                       -14.672 6                 207782069.553 5                 168839928.782 6                 160670258.914 6                        35.800                          37.200                          39.400
C06                  39998435.469 5                  39998421.918 6                  39998426.590 6                      1160.777 5                       943.284 6                       897.630 6                 208282355.881 5                 169246429.255 6                 161057098.721 6                        35.300                          37.400                          39.200
C09                  40370075.664 6                  40370062.430 6                  40370069.129 6                      1496.004 6                      1215.582 6                      1156.763 6                 210217589.136 6                 170818963.465 6                 162553552.386 6                        37.700                          36.500                          39.600
C14                  23684613.672 7                  23684600.238 7                  23684606.164 8                     -2327.164 7                     -1890.859 7                     -1799.370 8                 123332089.420 7                 100217401.988 7                  95368198.540 8                        45.900                          47.300                          48.100
C16                  40170289.813 6                  40170280.105 5                  40170287.191 6                       952.039 6                       773.789 5                       736.351 6                 209177248.596 6                 169973611.805 5                 161749105.691 6                        38.600                          35.800                          38.100
C27  22487024.496 8  22487025.797 8  22487022.129 8  22487016.227 8  22487019.641 7                      1845.775 8      1828.863 8      1378.350 8      1486.218 8      1414.300 7                 118170110.739 8 117095857.556 8  88243928.105 8  95149938.841 8  90545925.318 7                        50.300          51.500          51.300          50.500          45.200
C28  21794212.320 8  21794213.992 8  21794210.297 8  21794204.629 8  21794208.266 7                      -884.407 8      -876.563 8      -660.432 8      -712.120 8      -677.668 7                 114529385.731 8 113488224.305 8  85525210.823 8  92218455.690 8  87756285.356 7                        52.100          51.400          52.300          51.900          47.200
C30  26679565.340 5  26679566.156 5  26679563.863 5  26679559.020 5  26679563.078 4                      3063.339 5      3035.508 5      2287.537 5      2466.592 5                                 140202055.756 5 138927507.117 5 104696349.528 5 112889947.977 5                                        35.200          34.300          34.200          34.700          27.300
C32  26865937.520 5  26865939.109 5  26865939.281 6  26865931.910 6  26865936.543 5                      3501.464 5      3469.609 5      2614.700 6      2819.369 6      2682.945 5                 141181443.808 5 139898003.655 5 105427729.949 6 113678560.709 6 108177998.462 5                        35.700          35.000          40.300          38.400          32.300
C33  22492130.930 8  22492131.906 8  22492153.336 8  22492134.766 8  22492150.836 7                      -900.042 8      -892.055 8      -672.104 8      -724.704 8      -689.640 7                 118197065.984 8 117122568.889 8  88264179.864 8  95171744.798 8  90566713.351 7                        53.100          51.400          53.800          52.800          47.200
C36  27218921.324 5  27218922.031 6  27218925.289 6  27218918.434 6  27218922.941 5                      -756.948 5      -750.219 6      -565.208 6      -609.460 6      -579.976 5                 143036389.023 5 141736074.738 6 106812912.327 6 115172157.871 6 109599325.348 5                        34.800          36.100          40.200          40.000          32.300
C39  40041450.742 6  40041451.313 6  40041445.430 7  40041439.047 6  40041443.363 5                       609.996 6       604.293 6       455.508 7       491.146 6       467.389 5                 210419238.105 6 208506344.529 6 157131250.243 7 169428441.733 6 161230306.192 5                        40.800          38.900          42.300          39.900          35.400
C41  22726047.090 8  22726047.773 8  22726054.781 8  22726044.543 8  22726052.250 7                      2214.794 8      2194.426 8      1653.910 8      1783.335 8      1697.047 7                 119426234.968 8 118340551.997 8  89181977.053 8  96161398.596 8  91508449.258 7                        51.800          51.600          52.900          51.000          46.200
C42  26198142.516 6  26198143.945 6  26198150.699 6  26198143.297 6  26198148.406 5                     -3102.872 6     -3074.816 6     -2317.107 6     -2498.436 6     -2377.546 5                 137672218.283 6 136420670.694 6 102807226.782 6 110852984.161 6 105489128.302 5                        39.200          38.800          41.600          40.900          35.100
C43  25634279.906 6  25634281.609 6  25634279.734 6  25634272.508 6  25634277.109 5                     -2939.960 6     -2913.250 6     -2195.422 6     -2367.217 6     -2252.677 5                 134709247.788 6 133484641.607 6 100594672.428 6 108467248.235 6 103218749.994 5                        40.900          41.700          41.600          40.700          35.800
E02  27709385.523 6  27709386.805 6  27709379.430 7  27709384.188 6  27709386.582 7      1151.504 6       860.030 6       934.860 7       882.483 6       871.234 7 145613805.376 6 108737581.821 6 118192999.742 7 111574205.877 6 110155903.163 7        39.100          38.800          43.400          40.900          44.300
E04  26039809.375 7  26039810.375 7  26039802.820 7  26039808.324 7  26039810.555 8      2886.699 7      2155.699 7      2343.138 7      2211.933 7      2183.815 8 136840207.835 7 102185918.582 7 111071605.839 7 104851616.770 7 103518780.974 8        45.500          46.900          47.700          46.400          50.500
E10  23636976.734 8  23636978.348 8  23636971.191 9  23636975.801 8  23636978.098 9       385.578 8       288.003 8       313.043 9       295.505 8       291.752 9 124213205.877 8  92756657.198 8 100822411.724 9  95176382.457 8  93966525.628 9        52.300          53.400          57.300          53.500          56.700
E11  24416579.352 7  24416577.695 7  24416569.762 8  24416575.773 7  24416577.723 8      1469.672 7      1097.579 7      1193.015 8      1126.203 7      1111.891 8 128310004.990 7  95815908.056 7 104147693.250 8  98315435.569 7  97065698.608 8        46.500          45.700          50.800          45.600          48.500
E12  23871805.594 8  23871804.758 8  23871796.164 8  23871802.336 8  23871804.625 9      -729.738 8      -544.848 8      -592.226 8      -559.056 8      -551.949 9 125447211.914 8  93678125.209 8 101824007.964 8  96121891.839 8  94900014.317 9        48.700          50.100          53.600          51.000          54.000
E19  25961769.047 7  25961769.906 7  25961761.906 7  25961767.418 7  25961769.836 8       468.934 7       350.320 7       380.783 7       359.466 7       354.898 8 136430028.723 7 101879572.795 7 110738634.771 7 104537291.897 7 103208437.638 8        46.000          44.800          47.400          45.600          48.900
E24  27361612.836 7  27361614.926 7  27361607.383 7  27361612.012 7  27361614.410 7     -2875.148 7     -2146.951 7     -2333.657 7     -2202.943 7     -2174.950 7 143786250.434 7 107372850.203 7 116709587.712 7 110173867.544 7 108773367.667 7        42.400          43.200          46.000          43.200          47.300
E25  26307872.078 7  26307875.547 7  26307865.574 8  26307872.395 7  26307875.137 8     -1137.500 7      -849.299 7      -923.174 8      -871.475 7      -860.393 8 138248796.347 7 103237743.808 7 112214900.136 8 105930893.004 7 104584324.207 8        44.300          45.900          48.600          45.200          49.700
E33  27428667.016 7  27428668.898 7  27428661.547 7  27428665.645 6  27428668.512 7     -2153.570 7     -1608.064 7     -1747.884 7     -1650.005 6     -1629.031 7 144138866.992 7 107636319.256 7 116995912.158 7 110444192.972 6 109040261.904 7        42.000          42.500          44.600          41.400          46.200
G01  20518280.797 8                  20518288.379 6  20518288.402 8  20518284.320 9      1302.773 8                      1015.271 6      1015.271 8       972.971 9 107824283.186 8                  84018980.148 6  84018983.145 8  80518178.083 9        51.100                          40.200          51.200          55.000
G03  22148838.852 7                  22148845.730 6  22148846.098 7  22148843.836 8      2890.664 7                      2252.635 6      2252.639 7      2158.778 8 116392818.975 7                  90695845.474 6  90695853.469 7  86916850.300 8        44.700                          37.300          47.700          51.100
G08  21427829.188 8                  21427835.844 8  21427836.449 8  21427832.578 9     -2419.930 8                     -1885.528 8     -1885.521 8     -1806.957 9 112603945.546 8                  87743432.961 8  87743432.966 8  84087442.354 9        50.000                          53.200          50.500          54.100
G10  24666153.289 6                  24666160.746 5  24666160.223 6  24666156.574 7     -3303.617 6                     -2574.245 5     -2574.266 6     -2466.988 7 129621735.709 6                 101004128.588 5 101004074.586 6  96795595.778 7        36.800                          33.000          38.800          42.400
G14  23209986.227 6  23209984.266 7  23209990.293 4  23209990.375 7  23209992.117 7       203.410 6       203.699 7       158.719 4       158.714 7       152.113 7 121969303.322 6 121969312.327 7  95041032.966 4  95041038.973 7  91080993.936 7        40.300          44.400          29.100          43.600          47.200
G17  24659053.328 5                  24659057.453 3  24659057.266 6                      3264.324 5                      2543.412 3      2543.427 6                 129584125.727 5                 100974717.806 3 100974722.864 6                        34.100                          20.600          38.300
G21  20849770.352 8                  20849773.719 7                                      -246.352 8                      -191.871 7                                 109566303.936 8                  85376369.122 7                                        49.100                          43.800
G22  22393267.695 7                  22393272.625 5                                      1255.117 7                       978.184 5                                 117677571.747 7                  91696738.813 5                                        46.200                          33.300
G27  23907191.188 6                  23907197.848 6  23907198.070 6  23907195.031 7     -3598.520 6                     -2804.017 6     -2804.028 6     -2687.177 7 125633135.906 6                  97896014.397 6  97896013.409 6  93817004.627 7        39.800                          37.800          41.100          45.000
G32  22887754.625 7                  22887759.883 7  22887760.238 7  22887756.977 7      -656.723 7                      -511.536 7      -511.550 7      -490.234 7 120275961.620 7                  93721584.455 7  93721587.464 7  89816480.623 7        44.600                          45.800          45.600          47.500
I06  38482206.828 6        65.184 6 151012521.118 6        38.300
I09  37685523.383 6         8.707 6 147886149.093 6        40.000
R01  23542809.859 6  23542809.477 6  23542813.148 5  23542815.215 5      4546.742 6      4546.758 6      3536.339 5      3536.341 5 125849850.461 6 125849831.447 6  97883211.335 5  97883234.333 5        39.400          38.400          34.600          33.300
R06  23614591.406 5  23614590.078 5                                     -4122.121 5     -4122.003 5                                 126012023.636 5 126011992.635 5                                        32.900          31.600
R07  20048001.070 9  20048000.391 8  20048003.934 8  20048003.777 8     -1486.383 9     -1486.024 8     -1155.787 8     -1155.794 8 107318582.839 9 107318612.857 8  83470088.475 8  83470030.485 8        54.200          52.200          49.900          49.900
R08  20019695.211 8  20019694.977 8  20019697.102 8  20019697.031 8      2503.738 8      2504.035 8      1947.578 8      1947.584 8 107204632.395 8 107204647.406 8  83381423.477 8  83381448.485 8        51.900          49.700          50.400          49.200
R14  23168609.570 6  23168607.535 6  23168611.664 6  23168612.113 6      -850.355 6      -850.082 6      -661.194 6      -661.182 6 123501678.123 6 123501924.114 6  96056905.550 6  96056912.538 6        41.100          39.800          39.200          39.400
R15  24462564.781 6  24462564.207 6  24462566.441 6  24462567.301 6      2054.621 6      2054.946 6      1598.303 6      1598.312 6 130720553.663 6 130720535.665 6 101671532.525 6 101671539.511 6        39.900          39.500          36.100          36.100
R21  24094434.109 6  24094433.766 6  24094437.484 6  24094438.410 6     -3330.949 6     -3330.766 6     -2590.591 6     -2590.612 6 128934289.769 6 128934291.767 6 100282273.207 6 100282298.204 6        40.700          40.000          37.600          36.800
R22  20519102.570 8  20519101.355 8  20519102.906 8  20519103.574 8     -1845.656 8     -1845.439 8     -1435.350 8     -1435.343 8 109532401.929 8 109532409.927 8  85191882.180 8  85191903.183 8        52.800          51.800          49.900          49.900
R23  20051996.086 8  20051994.688 8                                      1876.289 8      1876.437 8                                 107264586.739 8 107264897.749 8                                        51.600          49.500
R24  23365345.313 7  23365344.680 7  23365347.332 7  23365347.875 6      3476.824 7      3476.823 7      2704.200 7      2704.204 6 124944993.105 7 124944994.118 7  97179445.010 7  97179455.011 6        44.300          43.600          42.200          41.400
S23  38478081.469 7  38478065.273 7         4.422 7         3.301 7 202204843.258 7 150994917.598 7        44.400          42.900
S26  40286689.984 5                       -78.730 5                 211707851.877 5                        32.300
S36  37806292.281 7  37806275.715 7         -.133 7         -.052 7 198674589.176 7 148360075.646 7        45.600          46.000
S48  67108863.984 6                       -32.363 6                 400806739.650 6                        39.300
